country,state,city,station,last_update,latitude,longitude,pollutant_id,pollutant_min,pollutant_max,pollutant_avg
India,Bihar,Aurangabad,"Gurdeo Nagar, Aurangabad - BSPCB","06-03-2025 18:00:00",24.75746,84.366208,SO2,6,14,11
India,Bihar,Begusarai,"Lohiyanagar, Begusarai - BSPCB","06-03-2025 18:00:00",25.42742023,86.13886079,PM10,86,142,120
India,Bihar,Begusarai,"Lohiyanagar, Begusarai - BSPCB","06-03-2025 18:00:00",25.42742023,86.13886079,SO2,3,34,16
India,Bihar,Bettiah,"Kamalnath Nagar, Bettiah - BSPCB","06-03-2025 18:00:00",26.80365,84.51954,PM2.5,23,100,43
India,Bihar,Bettiah,"Kamalnath Nagar, Bettiah - BSPCB","06-03-2025 18:00:00",26.80365,84.51954,PM10,75,161,101
India,Bihar,Bettiah,"Kamalnath Nagar, Bettiah - BSPCB","06-03-2025 18:00:00",26.80365,84.51954,SO2,10,22,16
India,Bihar,Bhagalpur,"DM Office_Kachari Chowk, Bhagalpur - BSPCB","06-03-2025 18:00:00",25.251013,86.989001,PM2.5,NA,NA,NA
India,Bihar,Bhagalpur,"DM Office_Kachari Chowk, Bhagalpur - BSPCB","06-03-2025 18:00:00",25.251013,86.989001,CO,15,90,46
India,Bihar,Bhagalpur,"DM Office_Kachari Chowk, Bhagalpur - BSPCB","06-03-2025 18:00:00",25.251013,86.989001,OZONE,10,21,18
India,Bihar,Bhagalpur,"Mayaganj, Bhagalpur - BSPCB","06-03-2025 18:00:00",25.265194,87.012947,PM2.5,18,70,33
India,Andhra_Pradesh,Chittoor,"Gangineni Cheruvu, Chittoor - APPCB","06-03-2025 18:00:00",13.204880,79.097889,SO2,2,3,3
India,Andhra_Pradesh,Kadapa,"Yerramukkapalli, Kadapa - APPCB","06-03-2025 18:00:00",14.465052,78.824187,PM10,67,158,95
India,Andhra_Pradesh,Kadapa,"Yerramukkapalli, Kadapa - APPCB","06-03-2025 18:00:00",14.465052,78.824187,SO2,14,16,15
India,Andhra_Pradesh,Rajamahendravaram,"Anand Kala Kshetram, Rajamahendravaram - APPCB","06-03-2025 18:00:00",16.9872867,81.7363176,NO2,13,51,26
India,Andhra_Pradesh,Tirumala,"Toll Gate, Tirumala - APPCB (Formerly known as Tirumala, Tirupati - APPCB)","06-03-2025 18:00:00",13.67,79.35,PM10,62,138,106
India,Andhra_Pradesh,Tirumala,"Toll Gate, Tirumala - APPCB (Formerly known as Tirumala, Tirupati - APPCB)","06-03-2025 18:00:00",13.67,79.35,NH3,1,2,1
India,Andhra_Pradesh,Tirumala,"Toll Gate, Tirumala - APPCB (Formerly known as Tirumala, Tirupati - APPCB)","06-03-2025 18:00:00",13.67,79.35,CO,22,61,28
India,Andhra_Pradesh,Tirupati,"Vaikuntapuram, Tirupati - APPCB","06-03-2025 18:00:00",13.615387,79.409230,NH3,2,12,5
India,Assam,Silchar,"Tarapur, Silchar - PCBA","06-03-2025 18:00:00",24.82827,92.79525,OZONE,2,39,17
India,Assam,Sivasagar,"Girls College, Sivasagar - PCBA","06-03-2025 18:00:00",26.987634,94.636574,NO2,13,49,36
India,Assam,Sivasagar,"Girls College, Sivasagar - PCBA","06-03-2025 18:00:00",26.987634,94.636574,NH3,1,7,5
India,Bihar,Araria,"Kharahiya Basti, Araria - BSPCB","06-03-2025 18:00:00",26.146529,87.454184,NO2,5,10,8
India,Bihar,Arrah,"New DM Office, Arrah - BSPCB","06-03-2025 18:00:00",25.5626095,84.663264,PM2.5,17,50,23
India,Bihar,Arrah,"New DM Office, Arrah - BSPCB","06-03-2025 18:00:00",25.5626095,84.663264,PM10,48,103,74
India,Bihar,Arrah,"New DM Office, Arrah - BSPCB","06-03-2025 18:00:00",25.5626095,84.663264,NO2,4,9,7
India,Bihar,Arrah,"New DM Office, Arrah - BSPCB","06-03-2025 18:00:00",25.5626095,84.663264,SO2,9,10,9
India,Bihar,Arrah,"New DM Office, Arrah - BSPCB","06-03-2025 18:00:00",25.5626095,84.663264,OZONE,37,134,104
India,Bihar,Gaya,"SFTI Kusdihra, Gaya - BSPCB","06-03-2025 18:00:00",24.762518,84.982348,PM10,47,130,70
India,Bihar,Gaya,"SFTI Kusdihra, Gaya - BSPCB","06-03-2025 18:00:00",24.762518,84.982348,OZONE,13,59,44
India,Bihar,Hajipur,"Industrial Area, Hajipur - BSPCB","06-03-2025 18:00:00",25.697189,85.245900,PM10,112,196,148
India,Bihar,Katihar,"Mirchaibari, Katihar - BSPCB","06-03-2025 18:00:00",25.560083,87.553265,PM2.5,NA,NA,NA
India,Bihar,Kishanganj,"SDM Office_Khagra, Kishanganj - BSPCB","06-03-2025 18:00:00",26.0881305,87.93840336,SO2,2,65,36
India,Bihar,Kishanganj,"SDM Office_Khagra, Kishanganj - BSPCB","06-03-2025 18:00:00",26.0881305,87.93840336,CO,13,13,13
India,Bihar,Kishanganj,"SDM Office_Khagra, Kishanganj - BSPCB","06-03-2025 18:00:00",26.0881305,87.93840336,OZONE,12,20,18
India,Assam,Guwahati,"Pan Bazaar, Guwahati - PCBA","06-03-2025 18:00:00",26.187500,91.744194,PM2.5,1,389,253
India,Assam,Guwahati,"Pan Bazaar, Guwahati - PCBA","06-03-2025 18:00:00",26.187500,91.744194,SO2,16,39,29
India,Assam,Guwahati,"Railway Colony, Guwahati - PCBA","06-03-2025 18:00:00",26.181742,91.78063,OZONE,1,97,71
India,Assam,Nagaon,"Christianpatty, Nagaon - PCBA","06-03-2025 18:00:00",26.349082,92.68449,PM2.5,30,90,49
India,Assam,Silchar,"Tarapur, Silchar - PCBA","06-03-2025 18:00:00",24.82827,92.79525,PM2.5,36,96,62
India,Assam,Silchar,"Tarapur, Silchar - PCBA","06-03-2025 18:00:00",24.82827,92.79525,NO2,8,23,18
India,Andhra_Pradesh,Vijayawada,"Rajiv Gandhi Park, Vijayawada - APPCB","06-03-2025 18:00:00",16.509717,80.612222,PM2.5,57,89,72
India,Andhra_Pradesh,Vijayawada,"Rajiv Gandhi Park, Vijayawada - APPCB","06-03-2025 18:00:00",16.509717,80.612222,NO2,48,81,60
India,Andhra_Pradesh,Vijayawada,"Rajiv Nagar, Vijayawada - APPCB","06-03-2025 18:00:00",16.554731,80.649110,PM10,46,62,53
India,Andhra_Pradesh,Vijayawada,"Rajiv Nagar, Vijayawada - APPCB","06-03-2025 18:00:00",16.554731,80.649110,OZONE,5,43,36
India,Andhra_Pradesh,Visakhapatnam,"GVM Corporation, Visakhapatnam - APPCB","06-03-2025 18:00:00",17.72,83.3,NH3,1,4,2
India,Assam,Byrnihat,"Central Academy for SFS, Byrnihat - PCBA","06-03-2025 18:00:00",26.071318,91.87488,NH3,4,5,4
India,Assam,Byrnihat,"Central Academy for SFS, Byrnihat - PCBA","06-03-2025 18:00:00",26.071318,91.87488,SO2,22,31,28
India,Assam,Byrnihat,"Central Academy for SFS, Byrnihat - PCBA","06-03-2025 18:00:00",26.071318,91.87488,CO,6,66,51
India,Assam,Guwahati,"IITG, Guwahati - PCBA","06-03-2025 18:00:00",26.2028636,91.70046436,SO2,19,22,20
India,Assam,Guwahati,"LGBI Airport, Guwahati - PCBA","06-03-2025 18:00:00",26.10887,91.589544,PM2.5,58,283,134
India,Bihar,Bhagalpur,"Mayaganj, Bhagalpur - BSPCB","06-03-2025 18:00:00",25.265194,87.012947,OZONE,7,30,21
India,Bihar,Buxar,"Charitra Van, Buxar - BSPCB","06-03-2025 18:00:00",25.567520,83.966379,PM2.5,18,50,37
India,Bihar,Buxar,"Charitra Van, Buxar - BSPCB","06-03-2025 18:00:00",25.567520,83.966379,CO,31,64,57
India,Bihar,Gaya,"Kareemganj, Gaya - BSPCB","06-03-2025 18:00:00",24.792403,84.992416,CO,22,50,39
India,Andhra_Pradesh,Amaravati,"Secretariat, Amaravati - APPCB","06-03-2025 18:00:00",16.5150833,80.5181667,PM2.5,32,207,89
India,Andhra_Pradesh,Anantapur,"Gulzarpet, Anantapur - APPCB","06-03-2025 18:00:00",14.675886,77.593027,PM2.5,17,75,62
India,Andhra_Pradesh,Chittoor,"Gangineni Cheruvu, Chittoor - APPCB","06-03-2025 18:00:00",13.204880,79.097889,PM2.5,32,160,82
India,Andhra_Pradesh,Vijayawada,"HB Colony, Vijayawada - APPCB","06-03-2025 18:00:00",16.536107,80.594233,PM10,54,90,70
India,Andhra_Pradesh,Vijayawada,"HB Colony, Vijayawada - APPCB","06-03-2025 18:00:00",16.536107,80.594233,NH3,3,3,3
India,Chhattisgarh,Bhilai,"Hathkhoj, Bhilai - CECB","06-03-2025 18:00:00",21.224231,81.408350,PM2.5,18,116,47
India,Chhattisgarh,Bhilai,"Hathkhoj, Bhilai - CECB","06-03-2025 18:00:00",21.224231,81.408350,SO2,12,49,23
India,Chhattisgarh,Bhilai,"Hathkhoj, Bhilai - CECB","06-03-2025 18:00:00",21.224231,81.408350,CO,4,49,9
India,Chhattisgarh,Bhilai,"Hathkhoj, Bhilai - CECB","06-03-2025 18:00:00",21.224231,81.408350,OZONE,8,23,18
India,Chhattisgarh,Bilaspur,"Mangala, Bilaspur - NTPC","06-03-2025 18:00:00",22.08815,82.13737,NO2,15,23,20
India,Chhattisgarh,Chhal,"Nawapara SECL Colony, Chhal - CECB","06-03-2025 18:00:00",22.118125,83.140608,SO2,2,88,29
India,Chhattisgarh,Korba,"Rampur, Korba - CECB","06-03-2025 18:00:00",22.368195,82.746431,PM2.5,36,67,52
India,Chhattisgarh,Korba,"Rampur, Korba - CECB","06-03-2025 18:00:00",22.368195,82.746431,NO2,26,65,37
India,Chhattisgarh,Korba,"Rampur, Korba - CECB","06-03-2025 18:00:00",22.368195,82.746431,NH3,1,1,1
India,Chhattisgarh,Korba,"Rampur, Korba - CECB","06-03-2025 18:00:00",22.368195,82.746431,OZONE,4,11,5
India,Bihar,Muzaffarpur,"MIT-Daudpur Kothi, Muzaffarpur - BSPCB","06-03-2025 18:00:00",26.1403345,85.3650192,OZONE,14,107,76
India,Bihar,Patna,"DRM Office Danapur, Patna - BSPCB","06-03-2025 18:00:00",25.586562,85.043586,NH3,2,3,3
India,Bihar,Patna,"Govt. High School Shikarpur, Patna - BSPCB","06-03-2025 18:00:00",25.592539,85.227158,PM2.5,83,246,150
India,Bihar,Patna,"Muradpur, Patna - BSPCB","06-03-2025 18:00:00",25.619651,85.147382,NH3,4,6,5
India,Bihar,Patna,"Muradpur, Patna - BSPCB","06-03-2025 18:00:00",25.619651,85.147382,SO2,4,9,6
India,Bihar,Patna,"Muradpur, Patna - BSPCB","06-03-2025 18:00:00",25.619651,85.147382,OZONE,12,23,18
India,Bihar,Saharsa,"Police Line, Saharsa - BSPCB","06-03-2025 18:00:00",25.892357,86.590325,CO,20,58,38
India,Bihar,Samastipur,"DM Office_Kasipur, Samastipur - BSPCB","06-03-2025 18:00:00",25.859655,85.77944,NO2,1,2,1
India,Bihar,Samastipur,"DM Office_Kasipur, Samastipur - BSPCB","06-03-2025 18:00:00",25.859655,85.77944,OZONE,4,7,6
India,Bihar,Sasaram,"Dada Peer, Sasaram - BSPCB","06-03-2025 18:00:00",24.952822,84.002396,NO2,2,3,2
India,Bihar,Sasaram,"Dada Peer, Sasaram - BSPCB","06-03-2025 18:00:00",24.952822,84.002396,CO,49,56,52
India,Bihar,Siwan,"Chitragupta Nagar, Siwan - BSPCB","06-03-2025 18:00:00",26.2271665,84.3570427,NH3,1,1,1
India,Chhattisgarh,Raipur,"Siltara Phase-II, Raipur - CECB","06-03-2025 18:00:00",21.371751,81.664929,SO2,9,47,16
India,Chhattisgarh,Tumidih,"OP Jindal Industrial Park, Tumidih - CECB","06-03-2025 18:00:00",22.06631475,83.33820077,NO2,22,49,29
India,Delhi,Delhi,"Alipur, Delhi - DPCC","06-03-2025 18:00:00",28.815329,77.153010,PM2.5,30,217,82
India,Delhi,Delhi,"Alipur, Delhi - DPCC","06-03-2025 18:00:00",28.815329,77.153010,NO2,35,55,43
India,Delhi,Delhi,"Anand Vihar, Delhi - DPCC","06-03-2025 18:00:00",28.647622,77.3158090,CO,49,96,76
India,Bihar,Manguraha,"Forest Rest House, Manguraha - BSPCB","06-03-2025 18:00:00",27.308328,84.531742,SO2,6,7,6
India,Bihar,Motihari,"Gandak Colony, Motihari - BSPCB","06-03-2025 18:00:00",26.63086,84.90051,PM2.5,10,150,46
India,Bihar,Munger,"Town Hall, Munger - BSPCB","06-03-2025 18:00:00",25.376776,86.471523,PM2.5,48,187,78
India,Bihar,Muzaffarpur,"Buddha Colony, Muzaffarpur - BSPCB","06-03-2025 18:00:00",26.11442,85.39813,PM2.5,64,314,135
India,Bihar,Muzaffarpur,"Buddha Colony, Muzaffarpur - BSPCB","06-03-2025 18:00:00",26.11442,85.39813,OZONE,17,33,29
India,Bihar,Patna,"Samanpura, Patna - BSPCB","06-03-2025 18:00:00",25.596727,85.085624,SO2,4,8,7
India,Bihar,Purnia,"Mariam Nagar, Purnia - BSPCB","06-03-2025 18:00:00",25.366336,87.117468,PM10,6,80,50
India,Bihar,Purnia,"Mariam Nagar, Purnia - BSPCB","06-03-2025 18:00:00",25.366336,87.117468,CO,4,74,59
India,Bihar,Rajgir,"Dangi Tola, Rajgir - BSPCB","06-03-2025 18:00:00",25.03280,85.41948,NO2,8,10,9
India,Bihar,Rajgir,"Dangi Tola, Rajgir - BSPCB","06-03-2025 18:00:00",25.03280,85.41948,OZONE,33,37,34
India,Chandigarh,Chandigarh,"Sector 22, Chandigarh - CPCC","06-03-2025 18:00:00",30.735567,76.775714,SO2,13,24,18
India,Chandigarh,Chandigarh,"Sector-25, Chandigarh - CPCC","06-03-2025 18:00:00",30.751462,76.762879,SO2,4,14,9
India,Chandigarh,Chandigarh,"Sector-53, Chandigarh - CPCC","06-03-2025 18:00:00",30.719859,76.738637,PM2.5,23,68,44
India,Chhattisgarh,Bhilai,"32Bungalows, Bhilai - CECB","06-03-2025 18:00:00",21.194815,81.314770,PM2.5,9,38,24
India,Chhattisgarh,Raipur,"AIIMS, Raipur - CECB","06-03-2025 18:00:00",21.258815,81.578979,PM10,20,81,42
India,Chhattisgarh,Raipur,"AIIMS, Raipur - CECB","06-03-2025 18:00:00",21.258815,81.578979,NO2,30,60,48
India,Chhattisgarh,Raipur,"Bhatagaon New ISBT, Raipur - CECB","06-03-2025 18:00:00",21.219665,81.630094,SO2,NA,NA,NA
India,Chhattisgarh,Milupara,"Govt. Higher Secondary School, Milupara - CECB","06-03-2025 18:00:00",22.1910172,83.5197009,SO2,6,10,8
India,Delhi,Delhi,"Dwarka-Sector 8, Delhi - DPCC ","06-03-2025 18:00:00",28.5710274,77.0719006,SO2,15,30,21
India,Delhi,Delhi,"IGI Airport (T3), Delhi - IMD","06-03-2025 18:00:00",28.5627763,77.1180053,PM2.5,15,117,64
India,Delhi,Delhi,"IHBAS, Dilshad Garden, Delhi - CPCB","06-03-2025 18:00:00",28.6811736,77.3025234,PM10,87,121,102
India,Delhi,Delhi,"IHBAS, Dilshad Garden, Delhi - CPCB","06-03-2025 18:00:00",28.6811736,77.3025234,NO2,26,65,48
India,Delhi,Delhi,"ITO, Delhi - CPCB","06-03-2025 18:00:00",28.628624,77.241060,PM10,44,125,87
India,Delhi,Delhi,"ITO, Delhi - CPCB","06-03-2025 18:00:00",28.628624,77.241060,NO2,9,42,24
India,Delhi,Delhi,"Narela, Delhi - DPCC","06-03-2025 18:00:00",28.822836,77.101981,PM10,59,142,96
India,Delhi,Delhi,"Narela, Delhi - DPCC","06-03-2025 18:00:00",28.822836,77.101981,CO,9,32,18
India,Delhi,Delhi,"Nehru Nagar, Delhi - DPCC","06-03-2025 18:00:00",28.567890,77.250515,NH3,4,5,4
India,Delhi,Delhi,"Nehru Nagar, Delhi - DPCC","06-03-2025 18:00:00",28.567890,77.250515,CO,41,64,55
India,Delhi,Delhi,"Nehru Nagar, Delhi - DPCC","06-03-2025 18:00:00",28.567890,77.250515,OZONE,46,140,114
India,Delhi,Delhi,"North Campus, DU, Delhi - IMD","06-03-2025 18:00:00",28.6573814,77.1585447,PM2.5,16,88,54
India,Delhi,Delhi,"North Campus, DU, Delhi - IMD","06-03-2025 18:00:00",28.6573814,77.1585447,PM10,73,168,110
India,Delhi,Delhi,"Ashok Vihar, Delhi - DPCC","06-03-2025 18:00:00",28.695381,77.181665,CO,15,31,20
India,Delhi,Delhi,"Aya Nagar, Delhi - IMD","06-03-2025 18:00:00",28.4706914,77.1099364,NO2,1,29,16
India,Delhi,Delhi,"Bawana, Delhi - DPCC","06-03-2025 18:00:00",28.776200,77.051074,PM2.5,40,207,97
India,Delhi,Delhi,"Bawana, Delhi - DPCC","06-03-2025 18:00:00",28.776200,77.051074,NO2,14,29,19
India,Delhi,Delhi,"Bawana, Delhi - DPCC","06-03-2025 18:00:00",28.776200,77.051074,NH3,5,5,5
India,Delhi,Delhi,"Burari Crossing, Delhi - IMD","06-03-2025 18:00:00",28.7256504,77.2011573,CO,33,44,39
India,Delhi,Delhi,"Patparganj, Delhi - DPCC","06-03-2025 18:00:00",28.623763,77.287209,OZONE,27,159,132
India,Delhi,Delhi,"Punjabi Bagh, Delhi - DPCC","06-03-2025 18:00:00",28.674045,77.131023,SO2,7,87,42
India,Delhi,Delhi,"Pusa, Delhi - DPCC","06-03-2025 18:00:00",28.639652,77.146275,PM2.5,27,130,65
India,Delhi,Delhi,"Pusa, Delhi - DPCC","06-03-2025 18:00:00",28.639652,77.146275,NO2,42,91,71
India,Delhi,Delhi,"Pusa, Delhi - DPCC","06-03-2025 18:00:00",28.639652,77.146275,NH3,5,11,10
India,Delhi,Delhi,"Pusa, Delhi - IMD","06-03-2025 18:00:00",28.636110,77.173332,CO,10,28,18
India,Delhi,Delhi,"Mandir Marg, Delhi - DPCC","06-03-2025 18:00:00",28.636429,77.201067,NO2,102,145,123
India,Delhi,Delhi,"Mundka, Delhi - DPCC","06-03-2025 18:00:00",28.684678,77.076574,PM2.5,23,213,92
India,Delhi,Delhi,"Mundka, Delhi - DPCC","06-03-2025 18:00:00",28.684678,77.076574,PM10,101,197,147
India,Delhi,Delhi,"Mundka, Delhi - DPCC","06-03-2025 18:00:00",28.684678,77.076574,NO2,33,53,40
India,Delhi,Delhi,"Najafgarh, Delhi - DPCC","06-03-2025 18:00:00",28.570173,76.933762,PM2.5,10,170,65
India,Delhi,Delhi,"Najafgarh, Delhi - DPCC","06-03-2025 18:00:00",28.570173,76.933762,CO,17,50,27
India,Delhi,Delhi,"Jahangirpuri, Delhi - DPCC","06-03-2025 18:00:00",28.732820,77.170633,OZONE,32,113,90
India,Delhi,Delhi,"Jawaharlal Nehru Stadium, Delhi - DPCC","06-03-2025 18:00:00",28.580280,77.233829,NO2,31,54,43
India,Delhi,Delhi,"Lodhi Road, Delhi - IMD","06-03-2025 18:00:00",28.5918245,77.2273074,NO2,7,21,14
India,Delhi,Delhi,"Major Dhyan Chand National Stadium, Delhi - DPCC","06-03-2025 18:00:00",28.611281,77.237738,SO2,8,27,14
India,Delhi,Delhi,"Chandni Chowk, Delhi - IITM","06-03-2025 18:00:00",28.656756,77.227234,PM10,84,352,150
India,Delhi,Delhi,"DTU, Delhi - CPCB","06-03-2025 18:00:00",28.7500499,77.1112615,NH3,10,11,10
India,Delhi,Delhi,"Dr. Karni Singh Shooting Range, Delhi - DPCC","06-03-2025 18:00:00",28.498571,77.264840,PM10,64,152,111
India,Delhi,Delhi,"Sirifort, Delhi - CPCB","06-03-2025 18:00:00",28.5504249,77.2159377,NH3,9,14,12
India,Delhi,Delhi,"Sonia Vihar, Delhi - DPCC","06-03-2025 18:00:00",28.710508,77.249485,CO,32,109,104
India,Delhi,Delhi,"Sri Aurobindo Marg, Delhi - DPCC","06-03-2025 18:00:00",28.531346,77.190156,SO2,14,34,20
India,Delhi,Delhi,"R K Puram, Delhi - DPCC","06-03-2025 18:00:00",28.563262,77.186937,OZONE,12,25,21
India,Delhi,Delhi,"Sirifort, Delhi - CPCB","06-03-2025 18:00:00",28.5504249,77.2159377,NO2,43,48,45
India,Gujarat,Ahmedabad,"Raikhad, Ahmedabad - IITM","06-03-2025 18:00:00",23.020509,72.579261,CO,16,143,49
India,Gujarat,Ahmedabad,"Rakhial, Ahmedabad - IITM","06-03-2025 18:00:00",23.016834,72.625775,NO2,16,150,56
India,Gujarat,Ahmedabad,"Rakhial, Ahmedabad - IITM","06-03-2025 18:00:00",23.016834,72.625775,CO,2,129,19
India,Gujarat,Ahmedabad,"Sardar Vallabhbhai Patel Stadium, Ahmedabad - IITM","06-03-2025 18:00:00",23.043070,72.562968,NH3,1,2,1
India,Gujarat,Ankleshwar,"GIDC, Ankleshwar - GPCB","06-03-2025 18:00:00",21.613267,73.010555,PM10,55,107,81
India,Gujarat,Ankleshwar,"GIDC, Ankleshwar - GPCB","06-03-2025 18:00:00",21.613267,73.010555,OZONE,31,40,38
India,Gujarat,Gandhinagar,"GIFT City, Gandhinagar - IITM","06-03-2025 18:00:00",23.163798,72.677768,NO2,NA,NA,NA
India,Karnataka,Bengaluru,"Hombegowda Nagar, Bengaluru - KSPCB","06-03-2025 18:00:00",12.938539,77.590100,CO,17,68,22
India,Karnataka,Bengaluru,"Jayanagar 5th Block, Bengaluru - KSPCB","06-03-2025 18:00:00",12.920984,77.584908,NH3,1,1,1
India,Karnataka,Bengaluru,"Jayanagar 5th Block, Bengaluru - KSPCB","06-03-2025 18:00:00",12.920984,77.584908,CO,6,92,25
India,Karnataka,Bengaluru,"Jayanagar 5th Block, Bengaluru - KSPCB","06-03-2025 18:00:00",12.920984,77.584908,OZONE,13,30,23
India,Karnataka,Bengaluru,"Jigani, Bengaluru - KSPCB","06-03-2025 18:00:00",12.7816279,77.6299145,PM10,79,120,106
India,Karnataka,Bengaluru,"Kasturi Nagar, Bengaluru - KSPCB","06-03-2025 18:00:00",13.003872,77.664217,SO2,8,9,9
India,Gujarat,Gandhinagar,"IIPHG Lekawada, Gandhinagar - IITM","06-03-2025 18:00:00",23.243639,72.68994,PM10,49,120,88
India,Gujarat,Gandhinagar,"Sector-10, Gandhinagar - GPCB","06-03-2025 18:00:00",23.221714,72.654328,SO2,4,6,5
India,Gujarat,Vatva,"Phase-4 GIDC, Vatva - GPCB","06-03-2025 18:00:00",22.969611,72.643500,SO2,1,18,5
India,Gujarat,Vatva,"Phase-4 GIDC, Vatva - GPCB","06-03-2025 18:00:00",22.969611,72.643500,OZONE,1,3,2
India,Haryana,"Charkhi Dadri","Mini Secretariat, Charkhi Dadri - HSPCB","06-03-2025 18:00:00",28.593883,76.270653,PM10,56,109,86
India,Haryana,"Charkhi Dadri","Mini Secretariat, Charkhi Dadri - HSPCB","06-03-2025 18:00:00",28.593883,76.270653,CO,6,25,14
India,Haryana,Faridabad,"Sector 11, Faridabad - HSPCB","06-03-2025 18:00:00",28.376058,77.315741,OZONE,20,21,20
India,Haryana,Faridabad,"Sector 30, Faridabad - HSPCB","06-03-2025 18:00:00",28.4417,77.3217,SO2,6,6,6
India,Haryana,Gurugram,"NISE Gwal Pahari, Gurugram - IMD","06-03-2025 18:00:00",28.422681,77.148944,PM2.5,15,78,46
India,Haryana,Gurugram,"NISE Gwal Pahari, Gurugram - IMD","06-03-2025 18:00:00",28.422681,77.148944,CO,22,27,24
India,Karnataka,Bengaluru,"Bapuji Nagar, Bengaluru - KSPCB","06-03-2025 18:00:00",12.951913,77.539784,NH3,2,2,2
India,Karnataka,Bengaluru,"Bapuji Nagar, Bengaluru - KSPCB","06-03-2025 18:00:00",12.951913,77.539784,SO2,30,50,41
India,Karnataka,Bengaluru,"City Railway Station, Bengaluru - KSPCB","06-03-2025 18:00:00",12.9756843,77.5660749,PM10,91,108,99
India,Karnataka,Bengaluru,"City Railway Station, Bengaluru - KSPCB","06-03-2025 18:00:00",12.9756843,77.5660749,CO,48,101,60
India,Karnataka,Bengaluru,"Hebbal, Bengaluru - KSPCB","06-03-2025 18:00:00",13.029152,77.585901,PM2.5,66,128,86
India,Karnataka,Bengaluru,"Hebbal, Bengaluru - KSPCB","06-03-2025 18:00:00",13.029152,77.585901,OZONE,6,54,38
India,Haryana,Gurugram,"Sector-51, Gurugram - HSPCB","06-03-2025 18:00:00",28.4227,77.0667,PM2.5,61,88,73
India,Haryana,Gurugram,"Sector-51, Gurugram - HSPCB","06-03-2025 18:00:00",28.4227,77.0667,SO2,1,12,6
India,Haryana,Panchgaon,"Amity University, Panchgaon - IITM","06-03-2025 18:00:00",28.3153,76.9143,PM2.5,16,122,45
India,Haryana,Panchgaon,"Amity University, Panchgaon - IITM","06-03-2025 18:00:00",28.3153,76.9143,OZONE,19,89,64
India,Jammu_and_Kashmir,Srinagar,"Rajbagh, Srinagar - JKSPCB","06-03-2025 18:00:00",34.066206,74.819820,PM2.5,35,60,44
India,Jharkhand,Dhanbad,"Sardar Patel Nagar, Dhanbad - JSPCB","06-03-2025 18:00:00",23.80569,86.44268,NO2,121,134,124
India,Jharkhand,Dhanbad,"Sardar Patel Nagar, Dhanbad - JSPCB","06-03-2025 18:00:00",23.80569,86.44268,CO,1,2,2
India,Karnataka,Belgaum,"Ramteerth Nagar, Belgaum - KSPCB","06-03-2025 18:00:00",15.888653,74.541751,PM2.5,22,50,36
India,Karnataka,Belgaum,"Ramteerth Nagar, Belgaum - KSPCB","06-03-2025 18:00:00",15.888653,74.541751,PM10,29,65,46
India,Karnataka,Belgaum,"Ramteerth Nagar, Belgaum - KSPCB","06-03-2025 18:00:00",15.888653,74.541751,CO,16,26,22
India,Karnataka,Belgaum,"Ramteerth Nagar, Belgaum - KSPCB","06-03-2025 18:00:00",15.888653,74.541751,OZONE,19,20,20
India,Gujarat,Ahmedabad,"Chandkheda, Ahmedabad - IITM","06-03-2025 18:00:00",23.107969,72.574648,CO,28,107,41
India,Gujarat,Ahmedabad,"Raikhad, Ahmedabad - IITM","06-03-2025 18:00:00",23.020509,72.579261,PM10,60,172,114
India,Delhi,Delhi,"Vivek Vihar, Delhi - DPCC","06-03-2025 18:00:00",28.672342,77.315260,NH3,3,4,4
India,Karnataka,Bengaluru,"Peenya, Bengaluru - CPCB","06-03-2025 18:00:00",13.0270199,77.494094,CO,NA,NA,NA
India,Karnataka,Bengaluru,"RVCE-Mailasandra, Bengaluru - KSPCB","06-03-2025 18:00:00",12.921418,77.502466,NO2,NA,NA,NA
India,Karnataka,Bengaluru,"RVCE-Mailasandra, Bengaluru - KSPCB","06-03-2025 18:00:00",12.921418,77.502466,SO2,5,6,6
India,Karnataka,Bengaluru,"Sanegurava Halli, Bengaluru - KSPCB","06-03-2025 18:00:00",12.990328,77.5431385,PM10,36,43,38
India,Karnataka,Bengaluru,"Shivapura_Peenya, Bengaluru - KSPCB","06-03-2025 18:00:00",13.0246342,77.5080115,PM10,NA,NA,NA
India,Karnataka,Bengaluru,"Shivapura_Peenya, Bengaluru - KSPCB","06-03-2025 18:00:00",13.0246342,77.5080115,OZONE,30,31,31
India,Karnataka,Bengaluru,"Silk Board, Bengaluru - KSPCB","06-03-2025 18:00:00",12.917348,77.622813,PM10,96,170,128
India,Karnataka,Bengaluru,"Silk Board, Bengaluru - KSPCB","06-03-2025 18:00:00",12.917348,77.622813,NH3,1,15,3
India,Karnataka,Bidar,"Naubad, Bidar - KSPCB","06-03-2025 18:00:00",17.930306,77.482194,SO2,23,26,25
India,Karnataka,Karwar,"KHB Colony, Karwar - KSPCB","06-03-2025 18:00:00",14.816666,74.141003,CO,9,10,10
India,Karnataka,Kolar,"Tamaka Ind. Area, Kolar - KSPCB","06-03-2025 18:00:00",13.1276288,78.1570122,NH3,NA,NA,NA
India,Karnataka,Madikeri,"Stuart Hill, Madikeri - KSPCB","06-03-2025 18:00:00",12.415911,75.735050,PM10,37,62,48
India,Karnataka,Madikeri,"Stuart Hill, Madikeri - KSPCB","06-03-2025 18:00:00",12.415911,75.735050,NH3,1,2,1
India,Karnataka,Madikeri,"Stuart Hill, Madikeri - KSPCB","06-03-2025 18:00:00",12.415911,75.735050,OZONE,5,6,6
India,Karnataka,Mangalore,"Kadri, Mangalore - KSPCB","06-03-2025 18:00:00",12.889250,74.853000,PM10,55,80,67
India,Karnataka,Mangalore,"Kadri, Mangalore - KSPCB","06-03-2025 18:00:00",12.889250,74.853000,NH3,2,2,2
India,Karnataka,Mysuru,"Hebbal 1st Stage, Mysuru - KSPCB","06-03-2025 18:00:00",12.21041,76.37376,SO2,3,11,5
India,Karnataka,Mysuru,"Hebbal 1st Stage, Mysuru - KSPCB","06-03-2025 18:00:00",12.21041,76.37376,OZONE,4,92,66
India,Karnataka,Hassan,"B.Katihalli, Hassan - KSPCB","06-03-2025 18:00:00",13.008556,76.125258,OZONE,1,2,2
India,Karnataka,Hubballi,"Lingaraj Nagar, Hubballi - KSPCB","06-03-2025 18:00:00",15.3714823,75.1160168,PM10,49,57,51
India,Karnataka,Kalaburagi,"Lal Bahadur Shastri Nagar, Kalaburagi - KSPCB","06-03-2025 18:00:00",17.321993,76.822628,SO2,42,54,45
India,Karnataka,Kalaburagi,"Mahatma Basaveswar Colony, Kalaburgi - KSPCB","06-03-2025 18:00:00",17.336318,76.847397,PM2.5,46,80,71
India,Karnataka,Kalaburagi,"Mahatma Basaveswar Colony, Kalaburgi - KSPCB","06-03-2025 18:00:00",17.336318,76.847397,SO2,2,5,4
India,Karnataka,Karwar,"KHB Colony, Karwar - KSPCB","06-03-2025 18:00:00",14.816666,74.141003,PM2.5,NA,NA,NA
India,Karnataka,Karwar,"KHB Colony, Karwar - KSPCB","06-03-2025 18:00:00",14.816666,74.141003,NO2,NA,NA,NA
India,Karnataka,Yadgir,"Collector Office, Yadgir - KSPCB","06-03-2025 18:00:00",16.7602,77.1428,SO2,2,27,16
India,Kerala,Eloor,"Udyogamandal, Eloor - Kerala PCB","06-03-2025 18:00:00",10.073232,76.302765,SO2,3,3,3
India,Kerala,Eloor,"Udyogamandal, Eloor - Kerala PCB","06-03-2025 18:00:00",10.073232,76.302765,CO,8,104,80
India,Kerala,Eloor,"Udyogamandal, Eloor - Kerala PCB","06-03-2025 18:00:00",10.073232,76.302765,OZONE,12,22,19
India,Kerala,Kannur,"Thavakkara, Kannur - Kerala PCB","06-03-2025 18:00:00",11.875000,75.373200,PM10,59,65,62
India,Kerala,Kannur,"Thavakkara, Kannur - Kerala PCB","06-03-2025 18:00:00",11.875000,75.373200,NO2,16,18,17
India,Kerala,Kollam,"Polayathode, Kollam - Kerala PCB","06-03-2025 18:00:00",8.8787,76.6073,NO2,9,10,9
India,Karnataka,Shivamogga,"Vinoba Nagara, Shivamogga - KSPCB","06-03-2025 18:00:00",13.940000,75.555917,PM2.5,24,47,32
India,Karnataka,Shivamogga,"Vinoba Nagara, Shivamogga - KSPCB","06-03-2025 18:00:00",13.940000,75.555917,CO,8,30,22
India,Karnataka,Shivamogga,"Vinoba Nagara, Shivamogga - KSPCB","06-03-2025 18:00:00",13.940000,75.555917,OZONE,19,112,80
India,Karnataka,Tumakuru,"Thimmalapura, Tumakuru - KSPCB","06-03-2025 18:00:00",13.377516,77.099072,PM2.5,95,310,161
India,Karnataka,Tumakuru,"Thimmalapura, Tumakuru - KSPCB","06-03-2025 18:00:00",13.377516,77.099072,CO,56,58,57
India,Karnataka,Udupi,"Brahmagiri, Udupi - KSPCB","06-03-2025 18:00:00",13.34194444,74.74694444,PM10,78,116,95
India,"Madhya Pradesh",Bhopal,"T T Nagar, Bhopal - MPPCB","06-03-2025 18:00:00",23.233584,77.400574,NH3,13,18,16
India,"Madhya Pradesh",Damoh,"Shrivastav Colony, Damoh - MPPCB","06-03-2025 18:00:00",23.81748678,79.446246,SO2,22,24,23
India,"Madhya Pradesh",Gwalior,"City Center, Gwalior - MPPCB","06-03-2025 18:00:00",26.203442,78.193251,PM10,8,140,55
India,"Madhya Pradesh",Gwalior,"City Center, Gwalior - MPPCB","06-03-2025 18:00:00",26.203442,78.193251,NH3,1,2,1
India,"Madhya Pradesh",Gwalior,"Deen Dayal Nagar, Gwalior - MPPCB","06-03-2025 18:00:00",26.259242,78.216432,NH3,4,6,5
India,"Madhya Pradesh",Indore,"Airport Area, Indore - IMC","06-03-2025 18:00:00",22.7289,75.8076,NO2,1,2,1
India,"Madhya Pradesh",Indore,"Chhoti Gwaltoli, Indore - MPPCB","06-03-2025 18:00:00",22.4310,75.5213,PM10,60,304,149
India,"Madhya Pradesh",Indore,"Chhoti Gwaltoli, Indore - MPPCB","06-03-2025 18:00:00",22.4310,75.5213,NO2,53,165,99
India,"Madhya Pradesh",Indore,"Regional Park, Indore - IMC","06-03-2025 18:00:00",22.6780,75.8559,NH3,NA,NA,NA
India,"Madhya Pradesh",Indore,"Regional Park, Indore - IMC","06-03-2025 18:00:00",22.6780,75.8559,SO2,NA,NA,NA
India,"Madhya Pradesh",Indore,"Residency Area, Indore - IMC","06-03-2025 18:00:00",22.7084,75.8815,OZONE,10,19,15
India,Kerala,Kollam,"Polayathode, Kollam - Kerala PCB","06-03-2025 18:00:00",8.8787,76.6073,CO,14,17,15
India,"Madhya Pradesh",Bhopal,"Idgah Hills, Bhopal - MPPCB","06-03-2025 18:00:00",23.264759,77.381568,PM10,46,112,66
India,"Madhya Pradesh",Bhopal,"Idgah Hills, Bhopal - MPPCB","06-03-2025 18:00:00",23.264759,77.381568,CO,17,34,25
India,"Madhya Pradesh",Bhopal,"Paryavaran Parisar, Bhopal - MPPCB","06-03-2025 18:00:00",23.210494,77.425409,NO2,1,74,17
India,"Madhya Pradesh",Bhopal,"Paryavaran Parisar, Bhopal - MPPCB","06-03-2025 18:00:00",23.210494,77.425409,CO,2,25,8
India,Karnataka,Chamarajanagar,"Urban, Chamarajanagar - KSPCB","06-03-2025 18:00:00",11.55358,76.55521,NO2,24,35,29
India,Karnataka,Chamarajanagar,"Urban, Chamarajanagar - KSPCB","06-03-2025 18:00:00",11.55358,76.55521,SO2,4,8,5
India,Karnataka,Chikkaballapur,"Chikkaballapur Rural, Chikkaballapur - KSPCB","06-03-2025 18:00:00",13.428828,77.731418,NO2,15,35,22
India,Karnataka,Davanagere,"Devaraj Urs Badavane, Davanagere - KSPCB","06-03-2025 18:00:00",14.475800,75.905200,CO,27,34,29
India,Maharashtra,Chandrapur,"Chauhan Colony, Chandrapur - MPCB","06-03-2025 18:00:00",19.962900,79.298714,NH3,10,82,26
India,Maharashtra,Chandrapur,"Chauhan Colony, Chandrapur - MPCB","06-03-2025 18:00:00",19.962900,79.298714,CO,10,23,15
India,Maharashtra,Chandrapur,"Chauhan Colony, Chandrapur - MPCB","06-03-2025 18:00:00",19.962900,79.298714,OZONE,21,43,30
India,Maharashtra,Chandrapur,"MIDC Khutala, Chandrapur - MPCB","06-03-2025 18:00:00",19.9775302,79.2337086,PM2.5,12,60,31
India,Maharashtra,Chandrapur,"MIDC Khutala, Chandrapur - MPCB","06-03-2025 18:00:00",19.9775302,79.2337086,PM10,26,94,67
India,Maharashtra,Chandrapur,"MIDC Khutala, Chandrapur - MPCB","06-03-2025 18:00:00",19.9775302,79.2337086,NH3,1,1,1
India,Maharashtra,Chandrapur,"MIDC Khutala, Chandrapur - MPCB","06-03-2025 18:00:00",19.9775302,79.2337086,CO,5,18,14
India,Maharashtra,Chandrapur,"MIDC Khutala, Chandrapur - MPCB","06-03-2025 18:00:00",19.9775302,79.2337086,OZONE,3,83,69
India,Maharashtra,Dhule,"Deopur, Dhule - MPCB","06-03-2025 18:00:00",20.918946,74.776388,PM2.5,33,65,47
India,Maharashtra,Dhule,"Deopur, Dhule - MPCB","06-03-2025 18:00:00",20.918946,74.776388,PM10,42,102,85
India,Maharashtra,Dhule,"Deopur, Dhule - MPCB","06-03-2025 18:00:00",20.918946,74.776388,SO2,2,5,4
India,Maharashtra,Jalgaon,"Prabhat Colony, Jalgaon - MPCB","06-03-2025 18:00:00",21.001264,75.565602,PM10,NA,NA,NA
India,Maharashtra,Jalgaon,"Prabhat Colony, Jalgaon - MPCB","06-03-2025 18:00:00",21.001264,75.565602,CO,3,63,30
India,"Madhya Pradesh",Maihar,"Sahilara, Maihar - KJS Cements","06-03-2025 18:00:00",24.2613009,80.7231783,PM10,1,44,25
India,"Madhya Pradesh",Mandideep,"Sector-D Industrial Area, Mandideep - MPPCB","06-03-2025 18:00:00",23.108440,77.511428,NH3,5,8,6
India,"Madhya Pradesh",Mandideep,"Sector-D Industrial Area, Mandideep - MPPCB","06-03-2025 18:00:00",23.108440,77.511428,SO2,7,112,33
India,"Madhya Pradesh",Mandideep,"Sector-D Industrial Area, Mandideep - MPPCB","06-03-2025 18:00:00",23.108440,77.511428,CO,26,92,39
India,"Madhya Pradesh",Mandideep,"Sector-D Industrial Area, Mandideep - MPPCB","06-03-2025 18:00:00",23.108440,77.511428,OZONE,35,40,38
India,"Madhya Pradesh",Pithampur,"Sector-2 Industrial Area, Pithampur - MPPCB","06-03-2025 18:00:00",22.624758,75.675238,NH3,4,7,5
India,"Madhya Pradesh",Pithampur,"Sector-2 Industrial Area, Pithampur - MPPCB","06-03-2025 18:00:00",22.624758,75.675238,SO2,1,66,22
India,"Madhya Pradesh",Ratlam,"Shasthri Nagar, Ratlam - IPCA Lab","06-03-2025 18:00:00",23.331731,75.045981,PM2.5,13,329,83
India,"Madhya Pradesh",Sagar,"Civil Lines, Sagar - MPPCB","06-03-2025 18:00:00",23.838586,78.759431,PM10,3,336,45
India,"Madhya Pradesh",Sagar,"Civil Lines, Sagar - MPPCB","06-03-2025 18:00:00",23.838586,78.759431,OZONE,36,64,60
India,Maharashtra,Badlapur,"Katrap, Badlapur - MPCB","06-03-2025 18:00:00",19.16485,73.23409,PM2.5,46,156,90
India,Maharashtra,Badlapur,"Katrap, Badlapur - MPCB","06-03-2025 18:00:00",19.16485,73.23409,NO2,33,119,65
India,Maharashtra,Badlapur,"Katrap, Badlapur - MPCB","06-03-2025 18:00:00",19.16485,73.23409,CO,8,54,15
India,Maharashtra,Badlapur,"Katrap, Badlapur - MPCB","06-03-2025 18:00:00",19.16485,73.23409,OZONE,5,154,154
India,Maharashtra,Belapur,"CBD Belapur, Belapur - MPCB","06-03-2025 18:00:00",19.0243902,73.0406721,PM2.5,60,228,116
India,Maharashtra,Belapur,"CBD Belapur, Belapur - MPCB","06-03-2025 18:00:00",19.0243902,73.0406721,OZONE,2,247,95
India,Maharashtra,Bhiwandi,"Gokul Nagar, Bhiwandi - MPCB","06-03-2025 18:00:00",19.309073,73.057223,PM2.5,15,128,62
India,Maharashtra,Bhiwandi,"Gokul Nagar, Bhiwandi - MPCB","06-03-2025 18:00:00",19.309073,73.057223,PM10,33,128,95
India,Maharashtra,Bhiwandi,"Gokul Nagar, Bhiwandi - MPCB","06-03-2025 18:00:00",19.309073,73.057223,NO2,22,73,45
India,Maharashtra,Bhiwandi,"Gokul Nagar, Bhiwandi - MPCB","06-03-2025 18:00:00",19.309073,73.057223,CO,12,34,20
India,Maharashtra,Boisar,"Khaira, Boisar - MPCB","06-03-2025 18:00:00",19.786089,72.757971,PM2.5,30,123,61
India,Maharashtra,Boisar,"Khaira, Boisar - MPCB","06-03-2025 18:00:00",19.786089,72.757971,NO2,8,31,17
India,Maharashtra,Latur,"Sawe Wadi, Latur - MPCB","06-03-2025 18:00:00",18.39963,76.57452,PM10,37,87,64
India,Maharashtra,Mahad,"Kamble Tarf Birwadi, Mahad - MPCB","06-03-2025 18:00:00",18.1023399,73.4783687,NO2,10,54,17
India,Maharashtra,Mahad,"Kamble Tarf Birwadi, Mahad - MPCB","06-03-2025 18:00:00",18.1023399,73.4783687,SO2,12,101,36
India,Maharashtra,Malegaon,"Mahesh Nagar, Malegaon - MPCB","06-03-2025 18:00:00",20.555712,74.529236,OZONE,15,78,59
India,Maharashtra,Mira-Bhayandar,"Bhayandar West, Mira-Bhayandar - MPCB","06-03-2025 18:00:00",19.296481,72.840923,NO2,NA,NA,NA
India,Maharashtra,Mira-Bhayandar,"Bhayandar West, Mira-Bhayandar - MPCB","06-03-2025 18:00:00",19.296481,72.840923,SO2,NA,NA,NA
India,Maharashtra,Mumbai,"Bandra Kurla Complex, Mumbai - MPCB","06-03-2025 18:00:00",19.065931,72.862131,PM2.5,54,342,172
India,Maharashtra,Jalna,"Old MIDC, Jalna - MPCB","06-03-2025 18:00:00",19.854616,75.905894,OZONE,40,106,70
India,Maharashtra,Kalyan,"Khadakpada, Kalyan - MPCB","06-03-2025 18:00:00",19.25292,73.142019,PM2.5,40,93,66
India,Maharashtra,Kalyan,"Khadakpada, Kalyan - MPCB","06-03-2025 18:00:00",19.25292,73.142019,SO2,4,8,5
India,Maharashtra,Kalyan,"Khadakpada, Kalyan - MPCB","06-03-2025 18:00:00",19.25292,73.142019,OZONE,16,16,16
India,Maharashtra,Kalyan,"Pimpleshwar Mandir, Kalyan - MPCB","06-03-2025 18:00:00",19.192056,72.9585188,NH3,NA,NA,NA
India,Maharashtra,Kalyan,"Pimpleshwar Mandir, Kalyan - MPCB","06-03-2025 18:00:00",19.192056,72.9585188,OZONE,4,164,93
India,Maharashtra,Kolhapur,"Sinchan Bhavan, Kolhapur - MPCB","06-03-2025 18:00:00",16.7143745,74.2426398,PM10,36,127,80
India,Maharashtra,Akola,"Ramdaspeth, Akola - MPCB","06-03-2025 18:00:00",20.719516,77.000253,NO2,11,34,20
India,Maharashtra,Akola,"Ramdaspeth, Akola - MPCB","06-03-2025 18:00:00",20.719516,77.000253,SO2,11,17,13
India,Maharashtra,Amravati,"Shivneri Colony, Amravati - MPCB","06-03-2025 18:00:00",20.9402359,77.7895248,PM10,44,91,68
India,Maharashtra,Amravati,"Shri Shivaji Science College, Amaravati - MPCB","06-03-2025 18:00:00",20.939198,77.765701,OZONE,26,77,72
India,Maharashtra,Aurangabad,"MIDC Chilkalthana, Aurangabad - MPCB","06-03-2025 18:00:00",19.875620,75.387310,PM2.5,54,265,109
India,Maharashtra,Aurangabad,"MIDC Chilkalthana, Aurangabad - MPCB","06-03-2025 18:00:00",19.875620,75.387310,NO2,NA,NA,NA
India,"Madhya Pradesh",Jabalpur,"Govindh Bhavan Colony, Jabalpur - JMC","06-03-2025 18:00:00",23.163174,79.973061,NH3,3,3,3
India,"Madhya Pradesh",Jabalpur,"Gupteshwar, Jabalpur - JMC","06-03-2025 18:00:00",23.142888,79.916147,CO,24,68,30
India,"Madhya Pradesh",Jabalpur,"Marhatal, Jabalpur - MPPCB","06-03-2025 18:00:00",23.168606,79.932247,CO,28,103,36
India,"Madhya Pradesh",Jabalpur,"Marhatal, Jabalpur - MPPCB","06-03-2025 18:00:00",23.168606,79.932247,OZONE,12,86,77
India,"Madhya Pradesh",Jabalpur,"Suhagi, Jabalpur - JMC","06-03-2025 18:00:00",23.218135,79.957770,NO2,16,83,42
India,"Madhya Pradesh",Katni,"Gole Bazar, Katni - MPPCB","06-03-2025 18:00:00",23.50016,80.23284,PM2.5,3,127,42
India,"Madhya Pradesh",Sagar,"Deen Dayal Nagar, Sagar - MPPCB","06-03-2025 18:00:00",23.8640158,78.80289321,PM10,20,107,59
India,"Madhya Pradesh",Satna,"Bandhavgar Colony, Satna - Birla Cement","06-03-2025 18:00:00",24.58434363,80.8549414,NO2,75,75,75
India,"Madhya Pradesh",Singrauli,"Suryakiran Bhawan NCL, Singrauli - MPPCB","06-03-2025 18:00:00",24.108970,82.645580,PM2.5,30,88,45
India,"Madhya Pradesh",Ujjain,"Mahakaleshwar Temple, Ujjain - MPPCB","06-03-2025 18:00:00","23.182719 ","75.768218 ",PM10,20,105,63
India,Maharashtra,Mumbai,"Borivali East, Mumbai - MPCB","06-03-2025 18:00:00",19.2243333,72.8658113,NH3,1,7,3
India,Maharashtra,Mumbai,"Borivali East, Mumbai - MPCB","06-03-2025 18:00:00",19.2243333,72.8658113,CO,4,29,10
India,Maharashtra,Mumbai,"Byculla, Mumbai - BMC","06-03-2025 18:00:00",18.9767,72.8380,NH3,10,22,15
India,Maharashtra,Mumbai,"Chembur, Mumbai - MPCB","06-03-2025 18:00:00",19.0364585,72.8954371,CO,34,78,41
India,Maharashtra,Pune,"Hadapsar, Pune - IITM","06-03-2025 18:00:00",18.501793,73.927532,PM2.5,62,138,88
India,Maharashtra,Pune,"Hadapsar, Pune - IITM","06-03-2025 18:00:00",18.501793,73.927532,NO2,52,100,74
India,Maharashtra,Pune,"Karve Road, Pune - MPCB","06-03-2025 18:00:00",18.5011743,73.8165527,PM10,NA,NA,NA
India,Maharashtra,Pune,"Karve Road, Pune - MPCB","06-03-2025 18:00:00",18.5011743,73.8165527,OZONE,10,153,12
India,Maharashtra,Pune,"Katraj Dairy, Pune - MPCB","06-03-2025 18:00:00",18.454450,73.854155,OZONE,85,102,95
India,Maharashtra,Pune,"Mhada Colony, Pune - IITM","06-03-2025 18:00:00",18.573040,73.927715,CO,28,100,55
India,Maharashtra,Pune,"Panchawati_Pashan, Pune - IITM","06-03-2025 18:00:00",18.536457,73.805454,PM2.5,42,63,53
India,Maharashtra,Pune,"Panchawati_Pashan, Pune - IITM","06-03-2025 18:00:00",18.536457,73.805454,PM10,35,76,57
India,Maharashtra,Pune,"Panchawati_Pashan, Pune - IITM","06-03-2025 18:00:00",18.536457,73.805454,CO,1,101,42
India,Maharashtra,Pune,"Revenue Colony-Shivajinagar, Pune - IITM","06-03-2025 18:00:00",18.530085,73.849598,PM2.5,85,346,223
India,Maharashtra,"Navi Mumbai","Mahape, Navi Mumbai - MPCB","06-03-2025 18:00:00",19.1135051,73.008978,NH3,1,2,1
India,Maharashtra,"Navi Mumbai","Sanpada, Navi Mumbai - MPCB","06-03-2025 18:00:00",19.0575752,73.0151367,NO2,28,100,70
India,Maharashtra,"Navi Mumbai","Sanpada, Navi Mumbai - MPCB","06-03-2025 18:00:00",19.0575752,73.0151367,CO,6,42,17
India,Maharashtra,"Navi Mumbai","Sector-2E Kalamboli, Navi Mumbai - MPCB","06-03-2025 18:00:00",19.02579,73.10297,PM2.5,48,180,104
India,Maharashtra,"Navi Mumbai","Sector-2E Kalamboli, Navi Mumbai - MPCB","06-03-2025 18:00:00",19.02579,73.10297,NO2,13,100,57
India,Maharashtra,"Navi Mumbai","Sector-2E Kalamboli, Navi Mumbai - MPCB","06-03-2025 18:00:00",19.02579,73.10297,NH3,3,10,6
India,Maharashtra,"Navi Mumbai","Sector-2E Kalamboli, Navi Mumbai - MPCB","06-03-2025 18:00:00",19.02579,73.10297,SO2,8,103,45
India,Maharashtra,"Navi Mumbai","Tondare-Taloja, Navi Mumbai - MPCB","06-03-2025 18:00:00",19.0630,73.1209,PM2.5,NA,NA,NA
India,Maharashtra,Mumbai,"Vile Parle West, Mumbai - MPCB","06-03-2025 18:00:00",19.10861,72.83622,OZONE,6,10,8
India,Maharashtra,Mumbai,"Worli, Mumbai - MPCB","06-03-2025 18:00:00",18.9936162,72.8128113,PM2.5,64,76,70
India,Maharashtra,Mumbai,"Worli, Mumbai - MPCB","06-03-2025 18:00:00",18.9936162,72.8128113,CO,6,21,13
India,Maharashtra,Nagpur,"Ambazari, Nagpur - MPCB","06-03-2025 18:00:00",21.121801,79.04952,SO2,8,129,39
India,Maharashtra,Nagpur,"Mahal, Nagpur - MPCB","06-03-2025 18:00:00",21.14472,79.107595,OZONE,43,80,69
India,Maharashtra,Nagpur,"Opp GPO Civil Lines, Nagpur - MPCB","06-03-2025 18:00:00",21.152875,79.0517531,PM2.5,13,66,43
India,Maharashtra,Nagpur,"Opp GPO Civil Lines, Nagpur - MPCB","06-03-2025 18:00:00",21.152875,79.0517531,PM10,49,125,84
India,Maharashtra,Mumbai,"Shivaji Nagar, Mumbai - BMC","06-03-2025 18:00:00",19.060498,72.923356,OZONE,1,108,65
India,Maharashtra,Mumbai,"Sion, Mumbai - MPCB","06-03-2025 18:00:00",19.047000,72.874600,PM2.5,68,124,84
India,Maharashtra,Mumbai,"Sion, Mumbai - MPCB","06-03-2025 18:00:00",19.047000,72.874600,PM10,83,106,96
India,Maharashtra,Mumbai,"Vasai West, Mumbai - MPCB","06-03-2025 18:00:00",19.383200,72.820400,SO2,36,38,37
India,Maharashtra,Mumbai,"Vile Parle West, Mumbai - MPCB","06-03-2025 18:00:00",19.10861,72.83622,NO2,69,110,85
India,Maharashtra,Mumbai,"Vile Parle West, Mumbai - MPCB","06-03-2025 18:00:00",19.10861,72.83622,SO2,36,37,37
India,Maharashtra,Mumbai,"Khindipada-Bhandup West, Mumbai - IITM","06-03-2025 18:00:00",19.1653323,72.922099,SO2,1,19,6
India,Maharashtra,Mumbai,"Khindipada-Bhandup West, Mumbai - IITM","06-03-2025 18:00:00",19.1653323,72.922099,CO,4,46,17
India,Maharashtra,Mumbai,"Kurla, Mumbai - MPCB","06-03-2025 18:00:00",19.0863,72.8888,SO2,NA,NA,NA
India,Maharashtra,Mumbai,"Malad West, Mumbai - IITM","06-03-2025 18:00:00",19.19709,72.82204,PM10,97,177,125
India,Maharashtra,Mumbai,"Mazgaon, Mumbai - IITM","06-03-2025 18:00:00",18.96702,72.84214,PM10,113,146,127
India,Maharashtra,Mumbai,"Mazgaon, Mumbai - IITM","06-03-2025 18:00:00",18.96702,72.84214,CO,2,56,28
India,Maharashtra,Pimpri-Chinchwad,"Park Street Wakad, Pimpri Chinchwad - MPCB","06-03-2025 18:00:00",18.59051,73.77946,PM10,94,144,113
India,Maharashtra,Pimpri-Chinchwad,"Park Street Wakad, Pimpri Chinchwad - MPCB","06-03-2025 18:00:00",18.59051,73.77946,NO2,42,113,65
India,Maharashtra,Pimpri-Chinchwad,"Park Street Wakad, Pimpri Chinchwad - MPCB","06-03-2025 18:00:00",18.59051,73.77946,SO2,2,13,7
India,Maharashtra,Pune,"Bhumkar Nagar, Pune - IITM","06-03-2025 18:00:00",18.605770,73.749976,PM10,92,359,148
India,Maharashtra,Mumbai,"Chhatrapati Shivaji Intl. Airport (T2), Mumbai - MPCB","06-03-2025 18:00:00",19.10078,72.87462,CO,18,28,22
India,Maharashtra,Mumbai,"Deonar, Mumbai - IITM","06-03-2025 18:00:00",19.04946,72.9230,PM10,153,248,175
India,Maharashtra,Mumbai,"Deonar, Mumbai - IITM","06-03-2025 18:00:00",19.04946,72.9230,NH3,6,11,5
India,Maharashtra,Nashik,"Hirawadi, Nashik - MPCB","06-03-2025 18:00:00",20.021503,73.813844,SO2,1,99,14
India,Maharashtra,Nashik,"MIDC Ambad, Nashik - MPCB","06-03-2025 18:00:00",19.950220,73.731480,OZONE,32,87,79
India,Maharashtra,Mumbai,"Powai, Mumbai - MPCB","06-03-2025 18:00:00",19.137500,72.915056,SO2,23,29,26
India,Maharashtra,Mumbai,"Sewri, Mumbai - BMC","06-03-2025 18:00:00",19.000084,72.856730,PM10,83,120,98
India,Odisha,Suakati,"OMC Colony, Suakati - OSPCB","06-03-2025 18:00:00",21.606865,85.510538,SO2,1,103,30
India,Odisha,Talcher,"Talcher Coalfields,Talcher - OSPCB","06-03-2025 18:00:00",20.9360711,85.1707021,PM10,66,404,178
India,Odisha,Talcher,"Talcher Coalfields,Talcher - OSPCB","06-03-2025 18:00:00",20.9360711,85.1707021,NH3,3,4,3
India,Odisha,Talcher,"Talcher Coalfields,Talcher - OSPCB","06-03-2025 18:00:00",20.9360711,85.1707021,SO2,8,31,15
India,Puducherry,Puducherry,"Jawahar Nagar, Puducherry - PPCC","06-03-2025 18:00:00",11.9309,79.8027,PM10,8,64,36
India,Puducherry,Puducherry,"Jawahar Nagar, Puducherry - PPCC","06-03-2025 18:00:00",11.9309,79.8027,SO2,4,11,8
India,Puducherry,Puducherry,"Jawahar Nagar, Puducherry - PPCC","06-03-2025 18:00:00",11.9309,79.8027,CO,12,48,20
India,Punjab,Amritsar,"Golden Temple, Amritsar - PPCB","06-03-2025 18:00:00",31.620000,74.876512,NO2,15,49,20
India,Punjab,Amritsar,"Golden Temple, Amritsar - PPCB","06-03-2025 18:00:00",31.620000,74.876512,CO,6,98,58
India,Punjab,Bathinda,"Hardev Nagar, Bathinda - PPCB","06-03-2025 18:00:00",30.233011,74.907758,NO2,21,25,23
India,Odisha,Nayagarh,"Dabuna, Nayagarh - OSPCB","06-03-2025 18:00:00",21.847279,85.416905,PM10,56,203,119
India,Odisha,Nayagarh,"Dabuna, Nayagarh - OSPCB","06-03-2025 18:00:00",21.847279,85.416905,NH3,2,9,6
India,Odisha,Nayagarh,"Dabuna, Nayagarh - OSPCB","06-03-2025 18:00:00",21.847279,85.416905,CO,14,27,19
India,Odisha,Rairangpur,"Divisional Forest Office, Rairangpur - OSPCB","06-03-2025 18:00:00",22.265816,86.174829,PM2.5,36,136,78
India,Odisha,Rairangpur,"Divisional Forest Office, Rairangpur - OSPCB","06-03-2025 18:00:00",22.265816,86.174829,NH3,3,3,3
India,Odisha,Rairangpur,"Divisional Forest Office, Rairangpur - OSPCB","06-03-2025 18:00:00",22.265816,86.174829,CO,20,53,25
India,Odisha,Rourkela,"Fertilizer Township, Rourkela - OSPCB","06-03-2025 18:00:00",22.18972222,84.86277778,PM2.5,42,95,69
India,Odisha,Rourkela,"Fertilizer Township, Rourkela - OSPCB","06-03-2025 18:00:00",22.18972222,84.86277778,NO2,NA,NA,NA
India,Odisha,Rourkela,"Fertilizer Township, Rourkela - OSPCB","06-03-2025 18:00:00",22.18972222,84.86277778,SO2,18,24,21
India,Odisha,Brajrajnagar,"GM Office, Brajrajnagar - OSPCB","06-03-2025 18:00:00",21.8004996,83.8396977,CO,48,69,66
India,Odisha,Byasanagar,"Ferro Chrome Colony, Byasanagar - OSPCB","06-03-2025 18:00:00",20.94185,86.11510,NO2,2,35,11
India,Odisha,Byasanagar,"Ferro Chrome Colony, Byasanagar - OSPCB","06-03-2025 18:00:00",20.94185,86.11510,SO2,3,52,17
India,Odisha,Byasanagar,"Ferro Chrome Colony, Byasanagar - OSPCB","06-03-2025 18:00:00",20.94185,86.11510,CO,20,54,25
India,Odisha,Cuttack,"CDA Area, Cuttack - OSPCB","06-03-2025 18:00:00","20.48891     ","85.84768     ",PM2.5,58,324,163
India,Odisha,Cuttack,"CDA Area, Cuttack - OSPCB","06-03-2025 18:00:00","20.48891     ","85.84768     ",PM10,101,305,178
India,Odisha,Keonjhar,"Jagamohanpur, Keonjhar - OSPCB","06-03-2025 18:00:00",21.643900,85.599355,PM2.5,56,104,77
India,Odisha,Keonjhar,"Jagamohanpur, Keonjhar - OSPCB","06-03-2025 18:00:00",21.643900,85.599355,SO2,21,33,26
India,Manipur,Imphal,"DM College of Science, Imphal - Manipur PCB","06-03-2025 18:00:00",24.8207389,93.9423085,OZONE,12,23,19
India,Meghalaya,Shillong,"Lumpyngngad, Shillong - Meghalaya PCB","06-03-2025 18:00:00",25.5586,91.8985,NO2,NA,NA,NA
India,Mizoram,Aizawl,"Sikulpuikawn, Aizawl - Mizoram PCB","06-03-2025 18:00:00",23.7176342,92.7192841,NH3,1,2,1
India,Mizoram,Aizawl,"Sikulpuikawn, Aizawl - Mizoram PCB","06-03-2025 18:00:00",23.7176342,92.7192841,SO2,2,2,2
India,Nagaland,Kohima,"PWD Juction, Kohima - NPCB","06-03-2025 18:00:00",25.6635413,94.0989878,PM2.5,92,213,153
India,Odisha,Angul,"Hakimapada, Angul - OSPCB","06-03-2025 18:00:00",20.832874,85.104082,OZONE,8,93,72
India,Odisha,Balasore,"Kalidaspur, Balasore - OSPCB","06-03-2025 18:00:00",21.51161,86.89088,PM10,83,193,120
India,Odisha,Balasore,"Kalidaspur, Balasore - OSPCB","06-03-2025 18:00:00",21.51161,86.89088,NO2,15,93,40
India,Odisha,Balasore,"Kalidaspur, Balasore - OSPCB","06-03-2025 18:00:00",21.51161,86.89088,NH3,2,6,4
India,Odisha,Balasore,"Kalidaspur, Balasore - OSPCB","06-03-2025 18:00:00",21.51161,86.89088,SO2,9,33,19
India,Odisha,Barbil,"Forest Office, Barbil - OSPCB","06-03-2025 18:00:00",22.1166054,85.3945546,NO2,5,34,15
India,Odisha,Barbil,"Forest Office, Barbil - OSPCB","06-03-2025 18:00:00",22.1166054,85.3945546,NH3,2,3,2
India,Maharashtra,Ulhasnagar,"Sidhi Vinayak Nagar, Ulhasnagar - MPCB","06-03-2025 18:00:00",19.235581,73.159121,CO,12,36,17
India,Maharashtra,Ulhasnagar,"Sidhi Vinayak Nagar, Ulhasnagar - MPCB","06-03-2025 18:00:00",19.235581,73.159121,OZONE,16,112,72
India,Manipur,Imphal,"DM College of Science, Imphal - Manipur PCB","06-03-2025 18:00:00",24.8207389,93.9423085,PM2.5,15,75,37
India,Manipur,Imphal,"DM College of Science, Imphal - Manipur PCB","06-03-2025 18:00:00",24.8207389,93.9423085,PM10,42,236,75
India,Manipur,Imphal,"DM College of Science, Imphal - Manipur PCB","06-03-2025 18:00:00",24.8207389,93.9423085,NO2,7,8,8
India,Manipur,Imphal,"DM College of Science, Imphal - Manipur PCB","06-03-2025 18:00:00",24.8207389,93.9423085,CO,6,6,6
India,Maharashtra,Solapur,"Dnyaneshwar Nagar, Solapur - MPCB","06-03-2025 18:00:00",17.6336264,75.9132495,SO2,3,26,8
India,Maharashtra,Solapur,"Ratandeep Housing Society, Solapur - MPCB","06-03-2025 18:00:00",17.65439,75.90649,NH3,2,17,5
India,Maharashtra,Solapur,"Ratandeep Housing Society, Solapur - MPCB","06-03-2025 18:00:00",17.65439,75.90649,SO2,5,33,12
India,Maharashtra,Solapur,"Solapur, Solapur - MPCB","06-03-2025 18:00:00",17.6599188,75.9063906,SO2,1,115,35
India,Odisha,Baripada,"Meher Colony, Baripada - OSPCB","06-03-2025 18:00:00",21.941841,86.728318,OZONE,25,147,115
India,Odisha,Bhubaneswar,"Patia, Bhubaneswar - OSPCB","06-03-2025 18:00:00",20.34652,85.81630,CO,20,71,32
India,Odisha,Bileipada,"Tata Township, Bileipada - OSPCB","06-03-2025 18:00:00",22.06156703,85.47409613,PM2.5,38,54,46
India,Maharashtra,Pune,"Revenue Colony-Shivajinagar, Pune - IITM","06-03-2025 18:00:00",18.530085,73.849598,SO2,13,27,19
India,Maharashtra,Pune,"Revenue Colony-Shivajinagar, Pune - IITM","06-03-2025 18:00:00",18.530085,73.849598,OZONE,3,105,65
India,Rajasthan,Dholpur,"Raja Ganj, Dholpur - RSPCB","06-03-2025 18:00:00",26.699557,77.898881,SO2,2,7,4
India,Rajasthan,Dungarpur,"Bhoiwada, Dungarpur - RSPCB","06-03-2025 18:00:00",23.837789,73.714926,PM2.5,17,110,61
India,Rajasthan,Dungarpur,"Bhoiwada, Dungarpur - RSPCB","06-03-2025 18:00:00",23.837789,73.714926,OZONE,4,109,82
India,Rajasthan,Jaipur,"Adarsh Nagar, Jaipur - RSPCB","06-03-2025 18:00:00",26.902909,75.836858,PM2.5,16,152,65
India,Rajasthan,Jaipur,"Adarsh Nagar, Jaipur - RSPCB","06-03-2025 18:00:00",26.902909,75.836858,SO2,1,46,23
India,Rajasthan,Jaipur,"Adarsh Nagar, Jaipur - RSPCB","06-03-2025 18:00:00",26.902909,75.836858,OZONE,22,49,40
India,Rajasthan,Jaipur,"Mansarovar Sector-12, Jaipur - RSPCB","06-03-2025 18:00:00",26.843698,75.766894,SO2,2,7,4
India,Rajasthan,Jaipur,"Mansarovar Sector-12, Jaipur - RSPCB","06-03-2025 18:00:00",26.843698,75.766894,CO,15,40,18
India,Rajasthan,Jaipur,"Police Commissionerate, Jaipur - RSPCB","06-03-2025 18:00:00",26.9164092,75.7994901,PM2.5,43,122,81
India,Rajasthan,Bharatpur,"Krishna Nagar, Bharatpur - RSPCB","06-03-2025 18:00:00",27.215415,77.50873,PM10,36,123,83
India,Rajasthan,Bharatpur,"Krishna Nagar, Bharatpur - RSPCB","06-03-2025 18:00:00",27.215415,77.50873,SO2,4,30,10
India,Rajasthan,Bhilwara,"Pratap Nagar, Bhilwara - RSPCB","06-03-2025 18:00:00",25.339605,74.618883,SO2,21,50,29
India,Rajasthan,Bhiwadi,"RIICO Ind. Area III, Bhiwadi - RSPCB","06-03-2025 18:00:00",28.194909,76.862296,PM10,84,127,105
India,Rajasthan,Bhiwadi,"Vasundhara Nagar_UIT, Bhiwadi - RSPCB","06-03-2025 18:00:00",28.207266,76.829265,NO2,18,49,31
India,Rajasthan,Bundi,"New Colony, Bundi - RSPCB","06-03-2025 18:00:00",25.435774,75.644272,NO2,10,73,25
India,Rajasthan,Chittorgarh,"Shastri Nagar, Chittorgarh - RSPCB","06-03-2025 18:00:00",24.892047,74.623527,NO2,6,93,41
India,Rajasthan,Chittorgarh,"Shastri Nagar, Chittorgarh - RSPCB","06-03-2025 18:00:00",24.892047,74.623527,OZONE,2,105,86
India,Rajasthan,Dausa,"Khatikan Mohalla, Dausa - RSPCB","06-03-2025 18:00:00",26.895552,76.334753,SO2,4,16,8
India,Rajasthan,Dausa,"Khatikan Mohalla, Dausa - RSPCB","06-03-2025 18:00:00",26.895552,76.334753,CO,21,78,37
India,Rajasthan,Dausa,"Khatikan Mohalla, Dausa - RSPCB","06-03-2025 18:00:00",26.895552,76.334753,OZONE,15,95,79
India,Punjab,Jalandhar,"Civil Line, Jalandhar - PPCB","06-03-2025 18:00:00",31.321907,75.578914,PM10,43,120,84
India,Punjab,Jalandhar,"Civil Line, Jalandhar - PPCB","06-03-2025 18:00:00",31.321907,75.578914,SO2,12,16,14
India,Punjab,Khanna,"Kalal Majra, Khanna - PPCB","06-03-2025 18:00:00","30.736056 ",76.209694,OZONE,15,39,27
India,Punjab,Ludhiana,"Punjab Agricultural University, Ludhiana - PPCB","06-03-2025 18:00:00",30.9028,75.8086,SO2,9,47,19
India,Punjab,Patiala,"Model Town, Patiala - PPCB","06-03-2025 18:00:00",30.349388,76.366642,NO2,18,34,24
India,Punjab,Patiala,"Model Town, Patiala - PPCB","06-03-2025 18:00:00",30.349388,76.366642,OZONE,19,80,63
India,Rajasthan,Ajmer,"Civil Lines,  Ajmer - RSPCB","06-03-2025 18:00:00",26.470859,74.646594,NO2,21,38,26
India,Rajasthan,Ajmer,"Civil Lines,  Ajmer - RSPCB","06-03-2025 18:00:00",26.470859,74.646594,SO2,7,13,10
India,Rajasthan,Ajmer,"Civil Lines,  Ajmer - RSPCB","06-03-2025 18:00:00",26.470859,74.646594,CO,27,36,34
India,Rajasthan,Baran,"Bamboliya, Baran - RSPCB","06-03-2025 18:00:00",25.106006,76.469948,PM2.5,22,53,38
India,Rajasthan,Baran,"Bamboliya, Baran - RSPCB","06-03-2025 18:00:00",25.106006,76.469948,SO2,5,10,7
India,Rajasthan,Barmer,"Railway Colony, Barmer - RSPCB","06-03-2025 18:00:00",25.747299,71.393989,PM2.5,7,305,51
India,Rajasthan,Barmer,"Railway Colony, Barmer - RSPCB","06-03-2025 18:00:00",25.747299,71.393989,PM10,26,383,119
India,Rajasthan,Barmer,"Railway Colony, Barmer - RSPCB","06-03-2025 18:00:00",25.747299,71.393989,NH3,1,50,14
India,Rajasthan,Jaipur,"Sector-2 Murlipura, Jaipur - RSPCB","06-03-2025 18:00:00",26.960669,75.771817,NH3,NA,NA,NA
India,Rajasthan,Jaipur,"Sector-2 Murlipura, Jaipur - RSPCB","06-03-2025 18:00:00",26.960669,75.771817,CO,NA,NA,NA
India,Rajasthan,Jaisalmer,"Sadar Bazar, Jaisalmer - RSPCB","06-03-2025 18:00:00",26.912329,70.909168,PM10,43,198,91
India,Rajasthan,Alwar,"Moti Doongri, Alwar - RSPCB","06-03-2025 18:00:00",27.554793,76.611536,NO2,32,60,49
India,Rajasthan,Alwar,"Moti Doongri, Alwar - RSPCB","06-03-2025 18:00:00",27.554793,76.611536,SO2,6,51,15
India,Rajasthan,Banswara,"Rati Talai, Banswara - RSPCB","06-03-2025 18:00:00",23.555190,74.440010,PM10,51,146,95
India,Rajasthan,Pali,"Indira Colony Vistar, Pali - RSPCB","06-03-2025 18:00:00",25.771061," 73.340227",PM2.5,62,183,113
India,Rajasthan,Pali,"Indira Colony Vistar, Pali - RSPCB","06-03-2025 18:00:00",25.771061," 73.340227",NH3,4,10,6
India,Rajasthan,Pali,"Indira Colony Vistar, Pali - RSPCB","06-03-2025 18:00:00",25.771061," 73.340227",SO2,7,10,9
India,Rajasthan,Pali,"Indira Colony Vistar, Pali - RSPCB","06-03-2025 18:00:00",25.771061," 73.340227",CO,24,92,40
India,Rajasthan,Pratapgarh,"Pragati Nagar, Pratapgarh - RSPCB","06-03-2025 18:00:00",24.041198,74.780702,SO2,4,20,9
India,Rajasthan,Rajsamand,"Dhoinda, Rajsamand - RSPCB","06-03-2025 18:00:00",25.036360,73.883502,PM10,17,123,53
India,Rajasthan,Rajsamand,"Dhoinda, Rajsamand - RSPCB","06-03-2025 18:00:00",25.036360,73.883502,NO2,5,47,18
India,Rajasthan,"Sawai Madhopur","Sahu Nagar, Sawai Madhopur - RSPCB","06-03-2025 18:00:00",26.031443,76.359327,SO2,5,8,6
India,Rajasthan,Sikar,"Radhakishan Pura, Sikar - RSPCB","06-03-2025 18:00:00",27.608912,75.153302,PM10,67,408,129
India,Rajasthan,Jalore,"Mudtra Sili, Jalore - RSPCB","06-03-2025 18:00:00",25.344694,72.626208,NH3,5,8,6
India,Rajasthan,Jhalawar,"Rajlaxmi Nagar, Jhalawar - RSPCB","06-03-2025 18:00:00",24.588397,76.172782,CO,30,74,40
India,Rajasthan,Jhunjhunu,"Indra Nagar, Jhunjhunu - RSPCB","06-03-2025 18:00:00",28.108988,75.386577,NO2,7,46,15
India,Rajasthan,Jhunjhunu,"Indra Nagar, Jhunjhunu - RSPCB","06-03-2025 18:00:00",28.108988,75.386577,NH3,8,17,10
India,Rajasthan,Jhunjhunu,"Indra Nagar, Jhunjhunu - RSPCB","06-03-2025 18:00:00",28.108988,75.386577,SO2,2,19,5
India,Rajasthan,Jhunjhunu,"Indra Nagar, Jhunjhunu - RSPCB","06-03-2025 18:00:00",28.108988,75.386577,CO,14,76,25
India,Rajasthan,Jodhpur,"Collectorate, Jodhpur - RSPCB","06-03-2025 18:00:00",26.268249,73.0193853,CO,2,70,24
India,Rajasthan,Jodhpur,"Digari Kalan, Jodhpur - RSPCB","06-03-2025 18:00:00",26.295810,73.082283,CO,7,8,8
India,TamilNadu,Dindigul,"Mendonsa Colony, Dindigul - TNPCB","06-03-2025 18:00:00",10.358535,77.984321,OZONE,2,2,2
India,TamilNadu,Gummidipoondi,"Anthoni Pillai Nagar, Gummidipoondi - TNPCB","06-03-2025 18:00:00",13.4127,80.1081,NO2,26,51,37
India,TamilNadu,Gummidipoondi,"Anthoni Pillai Nagar, Gummidipoondi - TNPCB","06-03-2025 18:00:00",13.4127,80.1081,NH3,2,5,4
India,TamilNadu,Kanchipuram,"Kilambi, Kanchipuram - TNPCB","06-03-2025 18:00:00",12.864618,79.659968,NH3,4,4,4
India,TamilNadu,Kanchipuram,"Kilambi, Kanchipuram - TNPCB","06-03-2025 18:00:00",12.864618,79.659968,CO,12,13,12
India,TamilNadu,Kanchipuram,"Kilambi, Kanchipuram - TNPCB","06-03-2025 18:00:00",12.864618,79.659968,OZONE,8,9,8
India,TamilNadu,Madurai,"Uchapatti, Madurai - TNPCB","06-03-2025 18:00:00",9.865935,78.022669,SO2,13,13,13
India,TamilNadu,Madurai,"Uchapatti, Madurai - TNPCB","06-03-2025 18:00:00",9.865935,78.022669,CO,12,12,12
India,Rajasthan,Udaipur,"Ashok Nagar, Udaipur - RSPCB","06-03-2025 18:00:00",24.5886166,73.6321397,CO,5,108,34
India,TamilNadu,Ariyalur,"Keelapalur, Ariyalur - TNPCB","06-03-2025 18:00:00",11.06825,79.07033,PM2.5,27,500,234
India,TamilNadu,Chengalpattu,"Crescent University, Chengalpattu - TNPCB","06-03-2025 18:00:00",12.8777316,80.0834807,NO2,14,14,14
India,TamilNadu,Chengalpattu,"Crescent University, Chengalpattu - TNPCB","06-03-2025 18:00:00",12.8777316,80.0834807,NH3,2,2,2
India,TamilNadu,Chennai,"Alandur Bus Depot, Chennai - CPCB","06-03-2025 18:00:00",12.9099161,80.1076538,NO2,16,17,17
India,TamilNadu,Chennai,"Kodungaiyur, Chennai - TNPCB","06-03-2025 18:00:00",13.1278,80.2642,PM10,1,2,1
India,TamilNadu,Coimbatore,"PSG College of Arts and Science, Coimbatore - TNPCB","06-03-2025 18:00:00",11.0328,77.0349,NH3,2,2,2
India,TamilNadu,Coimbatore,"PSG College of Arts and Science, Coimbatore - TNPCB","06-03-2025 18:00:00",11.0328,77.0349,SO2,8,11,9
India,TamilNadu,Coimbatore,"PSG College of Arts and Science, Coimbatore - TNPCB","06-03-2025 18:00:00",11.0328,77.0349,OZONE,4,7,5
India,TamilNadu,Coimbatore,"SIDCO Kurichi, Coimbatore - TNPCB","06-03-2025 18:00:00",10.942451,76.978996,CO,25,42,28
India,TamilNadu,Coimbatore,"SIDCO Kurichi, Coimbatore - TNPCB","06-03-2025 18:00:00",10.942451,76.978996,OZONE,13,160,160
India,TamilNadu,Cuddalore,"Kudikadu, Cuddalore - TNPCB","06-03-2025 18:00:00",11.6829898,79.7532099,PM2.5,NA,NA,NA
India,TamilNadu,Cuddalore,"Semmandalam, Cuddalore - TNPCB","06-03-2025 18:00:00",11.7637683,79.7499835,PM2.5,14,83,46
India,Rajasthan,Karauli,"Satyawati Vihar, Karauli - RSPCB","06-03-2025 18:00:00",26.506177,77.025989,CO,4,34,19
India,Rajasthan,Kota,"Dhanmandi, Kota - RSPCB","06-03-2025 18:00:00",25.164090,75.858137,PM2.5,5,88,27
India,Rajasthan,Kota,"Dhanmandi, Kota - RSPCB","06-03-2025 18:00:00",25.164090,75.858137,PM10,37,139,77
India,Rajasthan,Kota,"Dhanmandi, Kota - RSPCB","06-03-2025 18:00:00",25.164090,75.858137,NH3,4,6,5
India,Rajasthan,Kota,"Nayapura, Kota - RSPCB","06-03-2025 18:00:00",25.196024,75.855668,NO2,18,88,46
India,Rajasthan,Nagaur,"Karni Colony, Nagaur - RSPCB","06-03-2025 18:00:00",27.213494,73.734444,PM2.5,18,315,75
India,TamilNadu,Chennai,"Manali, Chennai - CPCB","06-03-2025 18:00:00",13.164544,80.26285,NO2,21,44,31
India,TamilNadu,Chennai,"Manali, Chennai - CPCB","06-03-2025 18:00:00",13.164544,80.26285,SO2,6,21,14
India,TamilNadu,Chennai,"Perungudi, Chennai - TNPCB","06-03-2025 18:00:00",12.9533,80.2357,PM2.5,16,107,49
India,TamilNadu,Chennai,"Perungudi, Chennai - TNPCB","06-03-2025 18:00:00",12.9533,80.2357,PM10,42,337,104
India,TamilNadu,Chennai,"Perungudi, Chennai - TNPCB","06-03-2025 18:00:00",12.9533,80.2357,CO,30,42,37
India,TamilNadu,Chennai,"Velachery Res. Area, Chennai - CPCB","06-03-2025 18:00:00",13.0052189,80.2398125,NO2,13,18,14
India,Rajasthan,Sikar,"Radhakishan Pura, Sikar - RSPCB","06-03-2025 18:00:00",27.608912,75.153302,SO2,4,8,5
India,Rajasthan,Sirohi,"Vedhaynath Colony, Sirohi - RSPCB","06-03-2025 18:00:00",24.885261,72.857549,OZONE,3,58,47
India,Rajasthan,"Sri Ganganagar","Old City, Sri Ganganagar - RSPCB","06-03-2025 18:00:00",29.931624,73.864511,OZONE,56,106,96
India,Rajasthan,Udaipur,"Ashok Nagar, Udaipur - RSPCB","06-03-2025 18:00:00",24.5886166,73.6321397,PM10,45,140,92
India,Rajasthan,Jodhpur,"Mandor, Jodhpur - RSPCB","06-03-2025 18:00:00",26.358805,73.047444,NO2,22,75,36
India,Rajasthan,Jodhpur,"Mandor, Jodhpur - RSPCB","06-03-2025 18:00:00",26.358805,73.047444,NH3,2,4,3
India,Rajasthan,Jodhpur,"Mandor, Jodhpur - RSPCB","06-03-2025 18:00:00",26.358805,73.047444,OZONE,3,95,86
India,Rajasthan,Jodhpur,"Samrat Ashok Udhyan, Jodhpur - RSPCB","06-03-2025 18:00:00",26.253384,72.976571,NO2,3,75,33
India,Rajasthan,Jodhpur,"Samrat Ashok Udhyan, Jodhpur - RSPCB","06-03-2025 18:00:00",26.253384,72.976571,OZONE,1,120,105
India,TamilNadu,Thanjavur,"Parisutham Nagar, Thanjavur - TNPCB","06-03-2025 18:00:00",10.7654824,79.1389968,SO2,16,17,17
India,TamilNadu,Thoothukudi,"Meelavittan, Thoothukudi - TNPCB","06-03-2025 18:00:00","8.816428 ",78.099039,NO2,16,27,20
India,TamilNadu,Thoothukudi,"Meelavittan, Thoothukudi - TNPCB","06-03-2025 18:00:00","8.816428 ",78.099039,SO2,7,18,13
India,TamilNadu,Tirunelveli,"Municipal Corporation Office, Tirunelveli - TNPCB","06-03-2025 18:00:00",8.728442,77.6962,PM10,20,37,29
India,TamilNadu,Tirunelveli,"Municipal Corporation Office, Tirunelveli - TNPCB","06-03-2025 18:00:00",8.728442,77.6962,NH3,1,2,1
India,TamilNadu,Tirunelveli,"Municipal Corporation Office, Tirunelveli - TNPCB","06-03-2025 18:00:00",8.728442,77.6962,OZONE,6,7,6
India,TamilNadu,Tirupur,"Kumaran College, Tirupur - TNPCB","06-03-2025 18:00:00",11.0973603,77.3228673,PM10,41,233,97
India,TamilNadu,Tirupur,"Kumaran College, Tirupur - TNPCB","06-03-2025 18:00:00",11.0973603,77.3228673,SO2,3,41,12
India,TamilNadu,Tirupur,"Kumaran College, Tirupur - TNPCB","06-03-2025 18:00:00",11.0973603,77.3228673,OZONE,NA,NA,NA
India,TamilNadu,Vellore,"Vasanthapuram, Vellore - TNPCB","06-03-2025 18:00:00",12.909494,79.131861,NO2,9,15,13
India,Telangana,Hyderabad,"Kompally Municipal Office, Hyderabad - TSPCB","06-03-2025 18:00:00",17.544899,78.486949,OZONE,27,37,36
India,Telangana,Hyderabad,"Nacharam_TSIIC IALA, Hyderabad - TSPCB","06-03-2025 18:00:00",17.429398,78.569354,PM10,85,95,90
India,Telangana,Hyderabad,"Nacharam_TSIIC IALA, Hyderabad - TSPCB","06-03-2025 18:00:00",17.429398,78.569354,NO2,10,12,11
India,Telangana,Hyderabad,"New Malakpet, Hyderabad - TSPCB","06-03-2025 18:00:00",17.37206,78.50864,PM10,53,90,69
India,Telangana,Hyderabad,"New Malakpet, Hyderabad - TSPCB","06-03-2025 18:00:00",17.37206,78.50864,SO2,14,37,22
India,Telangana,Hyderabad,"New Malakpet, Hyderabad - TSPCB","06-03-2025 18:00:00",17.37206,78.50864,CO,14,94,37
India,Telangana,Hyderabad,"Ramachandrapuram, Hyderabad - TSPCB","06-03-2025 18:00:00",17.528544,78.286195,PM10,NA,NA,NA
India,Telangana,Hyderabad,"Sanathnagar, Hyderabad - TSPCB","06-03-2025 18:00:00",17.4559458,78.4332152,PM2.5,NA,NA,NA
India,Telangana,Hyderabad,"Sanathnagar, Hyderabad - TSPCB","06-03-2025 18:00:00",17.4559458,78.4332152,NO2,NA,NA,NA
India,TamilNadu,Vellore,"Vasanthapuram, Vellore - TNPCB","06-03-2025 18:00:00",12.909494,79.131861,NH3,1,2,1
India,TamilNadu,Virudhunagar,"Collectorate Office, Virudhunagar - TNPCB","06-03-2025 18:00:00",9.559382,77.948828,NO2,15,16,15
India,Telangana,Hyderabad,"Bollaram Industrial Area, Hyderabad - TSPCB","06-03-2025 18:00:00",17.540891,78.358528,PM10,70,148,118
India,Telangana,Hyderabad,"Bollaram Industrial Area, Hyderabad - TSPCB","06-03-2025 18:00:00",17.540891,78.358528,NO2,17,50,34
India,Telangana,Hyderabad,"Central University, Hyderabad - TSPCB","06-03-2025 18:00:00",17.460103,78.334361,PM10,57,149,116
India,Telangana,Hyderabad,"Central University, Hyderabad - TSPCB","06-03-2025 18:00:00",17.460103,78.334361,NO2,23,154,72
India,Telangana,Hyderabad,"ECIL Kapra, Hyderabad - TSPCB","06-03-2025 18:00:00",17.470431,78.566959,NH3,3,5,4
India,TamilNadu,Ramanathapuram,"Chalai Bazaar, Ramanathapuram - TNPCB","06-03-2025 18:00:00",9.36399,78.831977,PM10,16,96,45
India,TamilNadu,Ranipet,"VOC Nagar_SIPCOT, Ranipet - TNPCB","06-03-2025 18:00:00",12.952707,79.30394,PM2.5,NA,NA,NA
India,TamilNadu,Ranipet,"VOC Nagar_SIPCOT, Ranipet - TNPCB","06-03-2025 18:00:00",12.952707,79.30394,OZONE,1,1,1
India,TamilNadu,Salem,"Sona College of Technology, Salem - TNPCB","06-03-2025 18:00:00",11.679111,78.125052,NH3,NA,NA,NA
India,TamilNadu,Thanjavur,"Parisutham Nagar, Thanjavur - TNPCB","06-03-2025 18:00:00",10.7654824,79.1389968,PM2.5,33,93,55
India,TamilNadu,Thanjavur,"Parisutham Nagar, Thanjavur - TNPCB","06-03-2025 18:00:00",10.7654824,79.1389968,NO2,5,6,5
India,TamilNadu,Nagapattinam,"Velippalayam, Nagapattinam - TNPCB","06-03-2025 18:00:00",10.798548,79.838212,NH3,2,2,2
India,TamilNadu,Nagapattinam,"Velippalayam, Nagapattinam - TNPCB","06-03-2025 18:00:00",10.798548,79.838212,OZONE,1,42,1
India,TamilNadu,Ooty,"Bombay Castel, Ooty - TNPCB","06-03-2025 18:00:00",11.4068288,76.7138973,OZONE,5,7,5
India,TamilNadu,Perundurai,"SIPCOT Industrial Park, Perundurai - TNPCB","06-03-2025 18:00:00",11.258242,77.552761,PM10,39,89,68
India,TamilNadu,Pudukottai,"SIPCOT Nathampannai, Pudukottai - TNPCB","06-03-2025 18:00:00",10.423417,78.784889,PM2.5,22,97,44
India,TamilNadu,Pudukottai,"SIPCOT Nathampannai, Pudukottai - TNPCB","06-03-2025 18:00:00",10.423417,78.784889,PM10,30,113,56
India,Telangana,Hyderabad,"Somajiguda, Hyderabad - TSPCB","06-03-2025 18:00:00",17.417094,78.457437,NH3,2,5,4
India,Telangana,Hyderabad,"Zoo Park, Hyderabad - TSPCB","06-03-2025 18:00:00",17.349694,78.451437,PM10,93,154,126
India,Telangana,Hyderabad,"Zoo Park, Hyderabad - TSPCB","06-03-2025 18:00:00",17.349694,78.451437,NH3,3,6,5
India,Tripura,Agartala,"Bardowali, Agartala - Tripura SPCB","06-03-2025 18:00:00",23.8175497,91.2726974,SO2,21,27,23
India,Uttar_Pradesh,Agra,"Manoharpur, Agra - UPPCB","06-03-2025 18:00:00",27.23711,78.01936,NH3,1,2,1
India,Uttar_Pradesh,Agra,"Rohta, Agra - UPPCB","06-03-2025 18:00:00",27.106972,78.000111,PM10,3,78,38
India,Uttar_Pradesh,Agra,"Sanjay Palace, Agra - UPPCB","06-03-2025 18:00:00",27.19865833,78.00598056,PM10,86,275,115
India,Uttar_Pradesh,Agra,"Sanjay Palace, Agra - UPPCB","06-03-2025 18:00:00",27.19865833,78.00598056,SO2,11,20,15
India,Uttar_Pradesh,Agra,"Sector-3B Avas Vikas Colony, Agra - UPPCB","06-03-2025 18:00:00",27.19412,77.96237,NH3,1,3,2
India,Uttar_Pradesh,Agra,"Sector-3B Avas Vikas Colony, Agra - UPPCB","06-03-2025 18:00:00",27.19412,77.96237,CO,16,28,22
India,Telangana,Hyderabad,"ICRISAT Patancheru, Hyderabad - TSPCB","06-03-2025 18:00:00",17.518400,78.278777,NH3,1,14,3
India,Telangana,Hyderabad,"ICRISAT Patancheru, Hyderabad - TSPCB","06-03-2025 18:00:00",17.518400,78.278777,SO2,9,34,20
India,Telangana,Hyderabad,"ICRISAT Patancheru, Hyderabad - TSPCB","06-03-2025 18:00:00",17.518400,78.278777,CO,4,72,26
India,Telangana,Hyderabad,"IITH Kandi, Hyderabad - TSPCB","06-03-2025 18:00:00",17.585705,78.126199,SO2,8,13,11
India,Uttar_Pradesh,Bareilly,"Civil Lines, Bareilly - UPPCB","06-03-2025 18:00:00",28.359581,79.414455,PM2.5,2,6,5
India,Uttar_Pradesh,Bareilly,"Rajendra Nagar, Bareilly - UPPCB","06-03-2025 18:00:00",28.38910936,79.42963708,PM2.5,13,20,16
India,Uttar_Pradesh,Bareilly,"Rajendra Nagar, Bareilly - UPPCB","06-03-2025 18:00:00",28.38910936,79.42963708,CO,4,18,14
India,Uttar_Pradesh,Bulandshahr,"Yamunapuram, Bulandshahr - UPPCB","06-03-2025 18:00:00",28.406963,77.849831,SO2,10,25,17
India,Uttar_Pradesh,Bulandshahr,"Yamunapuram, Bulandshahr - UPPCB","06-03-2025 18:00:00",28.406963,77.849831,OZONE,14,41,35
India,Uttar_Pradesh,Firozabad,"Nagla Bhau, Firozabad - UPPCB","06-03-2025 18:00:00",27.168897,78.376960,SO2,22,24,23
India,Uttar_Pradesh,Firozabad,"Nagla Bhau, Firozabad - UPPCB","06-03-2025 18:00:00",27.168897,78.376960,OZONE,4,6,5
India,Uttar_Pradesh,Firozabad,"Vibhab Nagar, Firozabad - UPPCB","06-03-2025 18:00:00",27.1594,78.3953,OZONE,15,34,28
India,Uttar_Pradesh,Ghaziabad,"Indirapuram, Ghaziabad - UPPCB","06-03-2025 18:00:00",28.646233,77.358075,PM10,88,162,119
India,Uttar_Pradesh,Ghaziabad,"Indirapuram, Ghaziabad - UPPCB","06-03-2025 18:00:00",28.646233,77.358075,NO2,68,82,75
India,Uttar_Pradesh,Ghaziabad,"Indirapuram, Ghaziabad - UPPCB","06-03-2025 18:00:00",28.646233,77.358075,NH3,6,7,7
India,Uttar_Pradesh,Lucknow,"Gomti Nagar, Lucknow - UPPCB","06-03-2025 18:00:00",26.868120,81.005119,SO2,7,24,11
India,Uttar_Pradesh,Lucknow,"Kendriya Vidyalaya, Lucknow - CPCB","06-03-2025 18:00:00",26.906111,80.948222,NO2,55,63,58
India,Uttar_Pradesh,Lucknow,"Kendriya Vidyalaya, Lucknow - CPCB","06-03-2025 18:00:00",26.906111,80.948222,OZONE,6,46,33
India,Uttar_Pradesh,Lucknow,"Kukrail Picnic Spot-1, Lucknow - UPPCB","06-03-2025 18:00:00",26.90723,80.98579,NH3,4,4,4
India,Uttar_Pradesh,Lucknow,"Kukrail Picnic Spot-1, Lucknow - UPPCB","06-03-2025 18:00:00",26.90723,80.98579,CO,10,20,15
India,Uttar_Pradesh,Lucknow,"Lalbagh, Lucknow - CPCB","06-03-2025 18:00:00",26.8458805,80.9365541,PM2.5,65,185,116
India,Uttar_Pradesh,Lucknow,"Lalbagh, Lucknow - CPCB","06-03-2025 18:00:00",26.8458805,80.9365541,SO2,7,20,13
India,Uttar_Pradesh,Kanpur,"Nehru Nagar, Kanpur - UPPCB","06-03-2025 18:00:00",26.4703136,80.3229863,SO2,15,19,17
India,Uttar_Pradesh,Khurja,"Kalindi Kunj, Khurja - UPPCB","06-03-2025 18:00:00",28.2348927,77.8683002,PM10,71,136,101
India,Uttar_Pradesh,Lucknow,"B R Ambedkar University, Lucknow - UPPCB","06-03-2025 18:00:00",26.766433,80.927299,PM2.5,25,60,38
India,Uttar_Pradesh,Lucknow,"B R Ambedkar University, Lucknow - UPPCB","06-03-2025 18:00:00",26.766433,80.927299,PM10,63,157,99
India,Uttar_Pradesh,Lucknow,"B R Ambedkar University, Lucknow - UPPCB","06-03-2025 18:00:00",26.766433,80.927299,NH3,1,1,1
India,Uttar_Pradesh,Lucknow,"Gomti Nagar, Lucknow - UPPCB","06-03-2025 18:00:00",26.868120,81.005119,PM10,32,120,61
India,Uttar_Pradesh,Gorakhpur,"Madan Mohan Malaviya University of Technology, Gorakhpur - UPPCB","06-03-2025 18:00:00",26.730136,83.433859,NO2,11,12,11
India,Uttar_Pradesh,Gorakhpur,"Madan Mohan Malaviya University of Technology, Gorakhpur - UPPCB","06-03-2025 18:00:00",26.730136,83.433859,NH3,1,1,1
India,Uttar_Pradesh,Gorakhpur,"Madan Mohan Malaviya University of Technology, Gorakhpur - UPPCB","06-03-2025 18:00:00",26.730136,83.433859,OZONE,6,12,10
India,Uttar_Pradesh,"Greater Noida","Knowledge Park - III, Greater Noida - UPPCB","06-03-2025 18:00:00",28.47272,77.482000,NO2,10,52,18
India,Uttar_Pradesh,"Greater Noida","Knowledge Park - V, Greater Noida - UPPCB","06-03-2025 18:00:00",28.557054,77.453663,SO2,5,20,9
India,Uttar_Pradesh,Jhansi,"Shivaji Nagar, Jhansi - UPPCB","06-03-2025 18:00:00",25.4547,78.6039,PM10,3,34,17
India,Uttar_Pradesh,Jhansi,"Shivaji Nagar, Jhansi - UPPCB","06-03-2025 18:00:00",25.4547,78.6039,NO2,6,7,6
India,Uttar_Pradesh,Kanpur,"FTI Kidwai Nagar, Kanpur - UPPCB","06-03-2025 18:00:00",26.428282,80.327067,NO2,22,23,22
India,Uttar_Pradesh,Kanpur,"FTI Kidwai Nagar, Kanpur - UPPCB","06-03-2025 18:00:00",26.428282,80.327067,SO2,24,26,25
India,Uttar_Pradesh,Kanpur,"FTI Kidwai Nagar, Kanpur - UPPCB","06-03-2025 18:00:00",26.428282,80.327067,CO,22,29,23
India,Uttar_Pradesh,Kanpur,"NSI Kalyanpur, Kanpur - UPPCB","06-03-2025 18:00:00",26.509954,80.249612,NO2,24,24,24
India,Uttar_Pradesh,Meerut,"Jai Bhim Nagar, Meerut - UPPCB","06-03-2025 18:00:00",28.9535882,77.7622941,CO,20,29,24
India,Uttar_Pradesh,Meerut,"Pallavpuram Phase 2, Meerut - UPPCB","06-03-2025 18:00:00",29.063510,77.709723,NO2,6,14,10
India,Uttar_Pradesh,Meerut,"Pallavpuram Phase 2, Meerut - UPPCB","06-03-2025 18:00:00",29.063510,77.709723,OZONE,15,42,35
India,Uttar_Pradesh,Moradabad,"Buddhi Vihar, Moradabad - UPPCB","06-03-2025 18:00:00",28.83526,78.74460,SO2,13,22,14
India,Uttar_Pradesh,Moradabad,"Buddhi Vihar, Moradabad - UPPCB","06-03-2025 18:00:00",28.83526,78.74460,CO,20,24,22
India,Uttar_Pradesh,Ghaziabad,"Loni, Ghaziabad - UPPCB","06-03-2025 18:00:00",28.757294,77.278792,SO2,8,17,13
India,Uttar_Pradesh,Ghaziabad,"Loni, Ghaziabad - UPPCB","06-03-2025 18:00:00",28.757294,77.278792,OZONE,35,102,89
India,Uttar_Pradesh,Ghaziabad,"Sanjay Nagar, Ghaziabad - UPPCB","06-03-2025 18:00:00",28.685382,77.453839,NO2,21,48,28
India,Uttar_Pradesh,Ghaziabad,"Sanjay Nagar, Ghaziabad - UPPCB","06-03-2025 18:00:00",28.685382,77.453839,OZONE,46,76,69
India,Uttar_Pradesh,Ghaziabad,"Vasundhara, Ghaziabad - UPPCB","06-03-2025 18:00:00",28.6603346,77.3572563,CO,32,48,39
India,Uttar_Pradesh,Moradabad,"Employment Office, Moradabad - UPPCB","06-03-2025 18:00:00",28.88528,78.73880,PM2.5,21,48,35
India,Uttar_Pradesh,Moradabad,"Employment Office, Moradabad - UPPCB","06-03-2025 18:00:00",28.88528,78.73880,NH3,4,4,4
India,Uttar_Pradesh,Moradabad,"Jigar Colony, Moradabad - UPPCB","06-03-2025 18:00:00",28.856664,78.772638,PM10,41,77,55
India,Uttar_Pradesh,Moradabad,"Jigar Colony, Moradabad - UPPCB","06-03-2025 18:00:00",28.856664,78.772638,NO2,12,25,24
India,Uttar_Pradesh,Moradabad,"Jigar Colony, Moradabad - UPPCB","06-03-2025 18:00:00",28.856664,78.772638,NH3,6,11,6
India,Uttar_Pradesh,Lucknow,"Talkatora District Industries Center, Lucknow - CPCB","06-03-2025 18:00:00",26.83399722,80.8917361,SO2,1,12,6
India,Uttar_Pradesh,Meerut,"Ganga Nagar, Meerut - UPPCB","06-03-2025 18:00:00",28.999264,77.7590354,NO2,17,32,27
India,Uttar_Pradesh,Noida,"Sector - 62, Noida - IMD","06-03-2025 18:00:00",28.6245479,77.3577104,PM2.5,34,121,61
India,Uttar_Pradesh,Noida,"Sector-1, Noida - UPPCB","06-03-2025 18:00:00",28.5898,77.3101,NH3,8,17,12
India,Uttar_Pradesh,Noida,"Sector-1, Noida - UPPCB","06-03-2025 18:00:00",28.5898,77.3101,OZONE,21,52,47
India,Uttar_Pradesh,Noida,"Sector-116, Noida - UPPCB","06-03-2025 18:00:00",28.569230,77.393848,NH3,4,10,7
India,Uttar_Pradesh,Prayagraj,"Jhunsi, Prayagraj - UPPCB","06-03-2025 18:00:00",25.425602,81.917152,NH3,5,5,5
India,Uttar_Pradesh,Prayagraj,"Jhunsi, Prayagraj - UPPCB","06-03-2025 18:00:00",25.425602,81.917152,CO,2,12,5
India,Uttar_Pradesh,Prayagraj,"Jhunsi, Prayagraj - UPPCB","06-03-2025 18:00:00",25.425602,81.917152,OZONE,15,72,49
India,Uttar_Pradesh,Moradabad,"Jigar Colony, Moradabad - UPPCB","06-03-2025 18:00:00",28.856664,78.772638,CO,20,48,30
India,Uttar_Pradesh,Moradabad,"Transport Nagar, Moradabad - UPPCB","06-03-2025 18:00:00",28.802625,78.753728,CO,1,34,13
India,Uttar_Pradesh,Noida,"Sector - 125, Noida - UPPCB","06-03-2025 18:00:00",28.5447608,77.3231257,PM2.5,13,500,119
India,Uttar_Pradesh,Noida,"Sector - 125, Noida - UPPCB","06-03-2025 18:00:00",28.5447608,77.3231257,PM10,NA,NA,NA
India,Uttar_Pradesh,Noida,"Sector - 125, Noida - UPPCB","06-03-2025 18:00:00",28.5447608,77.3231257,CO,46,67,61
India,Uttar_Pradesh,Varanasi,"Ardhali Bazar, Varanasi - UPPCB","06-03-2025 18:00:00",25.3505986,82.9083074,CO,3,28,10
India,Uttar_Pradesh,Varanasi,"Bhelupur, Varanasi - UPPCB","06-03-2025 18:00:00",25.301778,82.996789,NO2,8,8,8
India,Uttar_Pradesh,Varanasi,"IESD Banaras Hindu University, Varanasi - UPPCB","06-03-2025 18:00:00",25.262326,82.995408,PM2.5,3,11,6
India,Uttar_Pradesh,Varanasi,"IESD Banaras Hindu University, Varanasi - UPPCB","06-03-2025 18:00:00",25.262326,82.995408,NO2,2,2,2
India,Uttar_Pradesh,Varanasi,"IESD Banaras Hindu University, Varanasi - UPPCB","06-03-2025 18:00:00",25.262326,82.995408,NH3,3,5,4
India,Uttarakhand,Dehradun,"Doon University, Dehradun - UKPCB","06-03-2025 18:00:00",30.269444,78.044167,CO,10,119,12
India,Uttarakhand,Rishikesh,"Shivaji Nagar, Rishikesh - UKPCB","06-03-2025 18:00:00",30.075911,78.2859547,NH3,5,7,6
India,West_Bengal,Asansol,"Asansol Court Area, Asansol - WBPCB","06-03-2025 18:00:00",23.685297,86.945968,SO2,3,59,25
India,West_Bengal,Asansol,"Asansol Court Area, Asansol - WBPCB","06-03-2025 18:00:00",23.685297,86.945968,CO,10,72,19
India,West_Bengal,Asansol,"Asansol Court Area, Asansol - WBPCB","06-03-2025 18:00:00",23.685297,86.945968,OZONE,22,58,48
India,West_Bengal,Asansol,"Evelyn Lodge, Asansol - WBPCB","06-03-2025 18:00:00",23.6979360,86.9443950,OZONE,16,72,60
India,West_Bengal,Asansol,"Trivenidevi Bhalotia College, Asansol - WBPCB","06-03-2025 18:00:00",23.616515,87.119133,PM10,109,186,138
India,West_Bengal,Asansol,"Trivenidevi Bhalotia College, Asansol - WBPCB","06-03-2025 18:00:00",23.616515,87.119133,NO2,14,63,31
India,West_Bengal,Asansol,"Trivenidevi Bhalotia College, Asansol - WBPCB","06-03-2025 18:00:00",23.616515,87.119133,NH3,1,2,1
India,West_Bengal,Asansol,"Trivenidevi Bhalotia College, Asansol - WBPCB","06-03-2025 18:00:00",23.616515,87.119133,SO2,10,67,26
India,West_Bengal,Asansol,"Trivenidevi Bhalotia College, Asansol - WBPCB","06-03-2025 18:00:00",23.616515,87.119133,CO,44,90,55
India,West_Bengal,Asansol,"Trivenidevi Bhalotia College, Asansol - WBPCB","06-03-2025 18:00:00",23.616515,87.119133,OZONE,32,135,103
India,Uttar_Pradesh,Varanasi,"IESD Banaras Hindu University, Varanasi - UPPCB","06-03-2025 18:00:00",25.262326,82.995408,OZONE,1,6,4
India,Uttar_Pradesh,Varanasi,"Maldahiya, Varanasi - UPPCB","06-03-2025 18:00:00",25.32393,82.99687,PM2.5,3,45,11
India,Uttar_Pradesh,Varanasi,"Maldahiya, Varanasi - UPPCB","06-03-2025 18:00:00",25.32393,82.99687,PM10,29,78,44
India,West_Bengal,Barrackpore,"SVSPA Campus, Barrackpore - WBPCB","06-03-2025 18:00:00",22.7605581,88.3617589,PM2.5,33,326,136
India,West_Bengal,Durgapur,"Sidhu Kanhu Indoor Stadium, Durgapur - WBPCB","06-03-2025 18:00:00",23.5404352,87.2892225,NO2,21,87,39
India,West_Bengal,Haldia,"Priyambada Housing Estate, Haldia - WBPCB","06-03-2025 18:00:00",22.06047,88.109737,NH3,6,10,8
India,West_Bengal,Haldia,"Priyambada Housing Estate, Haldia - WBPCB","06-03-2025 18:00:00",22.06047,88.109737,CO,25,61,28
India,West_Bengal,Howrah,"Belur Math, Howrah - WBPCB","06-03-2025 18:00:00",22.629801,88.352017,NO2,45,74,55
India,West_Bengal,Howrah,"Dasnagar, Howrah - WBPCB","06-03-2025 18:00:00",22.6025571,88.3105664,PM10,104,290,181
India,West_Bengal,Howrah,"Ghusuri, Howrah - WBPCB","06-03-2025 18:00:00",22.611968,88.347422,PM2.5,69,218,112
India,West_Bengal,Howrah,"Padmapukur, Howrah - WBPCB","06-03-2025 18:00:00",22.5687319,88.2797276,NO2,15,62,33
India,West_Bengal,Kolkata,"Ballygunge, Kolkata - WBPCB","06-03-2025 18:00:00",22.5367507,88.3638022,PM2.5,58,267,123
India,West_Bengal,Kolkata,"Ballygunge, Kolkata - WBPCB","06-03-2025 18:00:00",22.5367507,88.3638022,OZONE,11,73,59
India,West_Bengal,Kolkata,"Bidhannagar, Kolkata - WBPCB","06-03-2025 18:00:00",22.58157048,88.41002457,PM2.5,52,191,108
India,West_Bengal,Kolkata,"Bidhannagar, Kolkata - WBPCB","06-03-2025 18:00:00",22.58157048,88.41002457,NH3,12,14,13
India,West_Bengal,Kolkata,"Fort William, Kolkata - WBPCB","06-03-2025 18:00:00",22.556640,88.342674,SO2,10,29,15
India,West_Bengal,Kolkata,"Rabindra Bharati University, Kolkata - WBPCB","06-03-2025 18:00:00",22.627847,88.380669,PM10,92,179,121
India,West_Bengal,Kolkata,"Rabindra Sarobar, Kolkata - WBPCB","06-03-2025 18:00:00",22.51106,88.35142,OZONE,15,149,123
India,West_Bengal,Kolkata,"Victoria, Kolkata - WBPCB","06-03-2025 18:00:00",22.5448082,88.3403691,OZONE,7,82,72
India,West_Bengal,Siliguri,"Ward-32 Bapupara, Siliguri - WBPCB","06-03-2025 18:00:00",26.6879226,88.4152495,PM2.5,78,153,107
India,Andhra_Pradesh,Chittoor,"Gangineni Cheruvu, Chittoor - APPCB","06-03-2025 18:00:00",13.204880,79.097889,CO,11,37,18
India,Andhra_Pradesh,Kadapa,"Yerramukkapalli, Kadapa - APPCB","06-03-2025 18:00:00",14.465052,78.824187,NH3,4,8,5
India,Andhra_Pradesh,Rajamahendravaram,"Anand Kala Kshetram, Rajamahendravaram - APPCB","06-03-2025 18:00:00",16.9872867,81.7363176,PM2.5,29,251,63
India,Andhra_Pradesh,Tirumala,"Toll Gate, Tirumala - APPCB (Formerly known as Tirumala, Tirupati - APPCB)","06-03-2025 18:00:00",13.67,79.35,NO2,15,44,27
India,Andhra_Pradesh,Tirumala,"Toll Gate, Tirumala - APPCB (Formerly known as Tirumala, Tirupati - APPCB)","06-03-2025 18:00:00",13.67,79.35,SO2,6,31,12
India,Andhra_Pradesh,Tirumala,"Toll Gate, Tirumala - APPCB (Formerly known as Tirumala, Tirupati - APPCB)","06-03-2025 18:00:00",13.67,79.35,OZONE,13,68,59
India,Andhra_Pradesh,Tirupati,"Vaikuntapuram, Tirupati - APPCB","06-03-2025 18:00:00",13.615387,79.409230,SO2,3,9,5
India,Bihar,"Bihar Sharif","D M Colony, Bihar Sharif - BSPCB","06-03-2025 18:00:00",25.204762,85.514960,NH3,NA,NA,NA
India,Bihar,"Bihar Sharif","D M Colony, Bihar Sharif - BSPCB","06-03-2025 18:00:00",25.204762,85.514960,SO2,NA,NA,NA
India,Bihar,"Bihar Sharif","D M Colony, Bihar Sharif - BSPCB","06-03-2025 18:00:00",25.204762,85.514960,CO,NA,NA,NA
India,Bihar,Buxar,"Charitra Van, Buxar - BSPCB","06-03-2025 18:00:00",25.567520,83.966379,NH3,4,4,4
India,Bihar,Gaya,"Collectorate, Gaya - BSPCB","06-03-2025 18:00:00",24.7955,84.9994,SO2,30,31,30
India,Bihar,Gaya,"Kareemganj, Gaya - BSPCB","06-03-2025 18:00:00",24.792403,84.992416,SO2,14,16,15
India,Bihar,Gaya,"SFTI Kusdihra, Gaya - BSPCB","06-03-2025 18:00:00",24.762518,84.982348,PM2.5,16,317,57
India,Bihar,Gaya,"SFTI Kusdihra, Gaya - BSPCB","06-03-2025 18:00:00",24.762518,84.982348,NH3,3,4,3
India,Bihar,Begusarai,"Lohiyanagar, Begusarai - BSPCB","06-03-2025 18:00:00",25.42742023,86.13886079,CO,42,57,46
India,Bihar,Bhagalpur,"DM Office_Kachari Chowk, Bhagalpur - BSPCB","06-03-2025 18:00:00",25.251013,86.989001,NO2,18,28,22
India,Bihar,Bhagalpur,"Mayaganj, Bhagalpur - BSPCB","06-03-2025 18:00:00",25.265194,87.012947,PM10,82,116,102
India,Bihar,Bhagalpur,"Mayaganj, Bhagalpur - BSPCB","06-03-2025 18:00:00",25.265194,87.012947,NH3,2,8,6
India,Bihar,Bhagalpur,"Mayaganj, Bhagalpur - BSPCB","06-03-2025 18:00:00",25.265194,87.012947,SO2,NA,NA,NA
India,Bihar,Bhagalpur,"Mayaganj, Bhagalpur - BSPCB","06-03-2025 18:00:00",25.265194,87.012947,CO,26,40,32
India,Assam,Guwahati,"IITG, Guwahati - PCBA","06-03-2025 18:00:00",26.2028636,91.70046436,PM10,136,430,253
India,Assam,Guwahati,"IITG, Guwahati - PCBA","06-03-2025 18:00:00",26.2028636,91.70046436,NO2,1,7,2
India,Assam,Guwahati,"IITG, Guwahati - PCBA","06-03-2025 18:00:00",26.2028636,91.70046436,NH3,5,5,5
India,Assam,Guwahati,"LGBI Airport, Guwahati - PCBA","06-03-2025 18:00:00",26.10887,91.589544,PM10,95,173,139
India,Assam,Guwahati,"LGBI Airport, Guwahati - PCBA","06-03-2025 18:00:00",26.10887,91.589544,NH3,14,21,16
India,Assam,Guwahati,"LGBI Airport, Guwahati - PCBA","06-03-2025 18:00:00",26.10887,91.589544,SO2,8,12,11
India,Assam,Guwahati,"LGBI Airport, Guwahati - PCBA","06-03-2025 18:00:00",26.10887,91.589544,CO,16,48,25
India,Assam,Sivasagar,"Girls College, Sivasagar - PCBA","06-03-2025 18:00:00",26.987634,94.636574,SO2,3,15,9
India,Bihar,Araria,"Kharahiya Basti, Araria - BSPCB","06-03-2025 18:00:00",26.146529,87.454184,PM2.5,23,83,51
India,Bihar,Araria,"Kharahiya Basti, Araria - BSPCB","06-03-2025 18:00:00",26.146529,87.454184,OZONE,9,11,10
India,Bihar,Aurangabad,"Gurdeo Nagar, Aurangabad - BSPCB","06-03-2025 18:00:00",24.75746,84.366208,PM10,36,210,114
India,Assam,Nagaon,"Christianpatty, Nagaon - PCBA","06-03-2025 18:00:00",26.349082,92.68449,NO2,1,15,6
India,Assam,Nalbari,"Bata Chowk, Nalbari - PCBA","06-03-2025 18:00:00",26.446912,91.439057,PM2.5,56,261,123
India,Assam,Nalbari,"Bata Chowk, Nalbari - PCBA","06-03-2025 18:00:00",26.446912,91.439057,OZONE,10,65,54
India,Assam,Silchar,"Tarapur, Silchar - PCBA","06-03-2025 18:00:00",24.82827,92.79525,PM10,59,71,63
India,Andhra_Pradesh,Vijayawada,"Kanuru, Vijayawada - APPCB","06-03-2025 18:00:00",16.486692,80.699436,OZONE,28,43,32
India,Andhra_Pradesh,Vijayawada,"Rajiv Gandhi Park, Vijayawada - APPCB","06-03-2025 18:00:00",16.509717,80.612222,NH3,2,4,3
India,Andhra_Pradesh,Vijayawada,"Rajiv Nagar, Vijayawada - APPCB","06-03-2025 18:00:00",16.554731,80.649110,PM2.5,49,62,55
India,Andhra_Pradesh,Amaravati,"Secretariat, Amaravati - APPCB","06-03-2025 18:00:00",16.5150833,80.5181667,CO,14,50,28
India,Andhra_Pradesh,Anantapur,"Gulzarpet, Anantapur - APPCB","06-03-2025 18:00:00",14.675886,77.593027,NO2,18,33,26
India,"Andaman and Nicobar","Sri Vijaya Puram","Police Line, Sri Vijaya Puram - ANPCC","06-03-2025 18:00:00",11.654054,92.734055,PM10,49,122,83
India,"Andaman and Nicobar","Sri Vijaya Puram","Police Line, Sri Vijaya Puram - ANPCC","06-03-2025 18:00:00",11.654054,92.734055,NH3,1,4,2
India,Andhra_Pradesh,Vijayawada,"HB Colony, Vijayawada - APPCB","06-03-2025 18:00:00",16.536107,80.594233,CO,19,34,25
India,Andhra_Pradesh,Vijayawada,"HB Colony, Vijayawada - APPCB","06-03-2025 18:00:00",16.536107,80.594233,OZONE,3,80,60
India,Chandigarh,Chandigarh,"Sector-25, Chandigarh - CPCC","06-03-2025 18:00:00",30.751462,76.762879,PM2.5,28,72,50
India,Chandigarh,Chandigarh,"Sector-25, Chandigarh - CPCC","06-03-2025 18:00:00",30.751462,76.762879,PM10,51,71,59
India,Chandigarh,Chandigarh,"Sector-25, Chandigarh - CPCC","06-03-2025 18:00:00",30.751462,76.762879,CO,11,18,16
India,Chandigarh,Chandigarh,"Sector-53, Chandigarh - CPCC","06-03-2025 18:00:00",30.719859,76.738637,PM10,42,82,56
India,Chandigarh,Chandigarh,"Sector-53, Chandigarh - CPCC","06-03-2025 18:00:00",30.719859,76.738637,NO2,19,44,26
India,Chandigarh,Chandigarh,"Sector-53, Chandigarh - CPCC","06-03-2025 18:00:00",30.719859,76.738637,SO2,5,18,10
India,Chhattisgarh,Bhilai,"32Bungalows, Bhilai - CECB","06-03-2025 18:00:00",21.194815,81.314770,SO2,3,8,4
India,Chhattisgarh,Bhilai,"Civic Center, Bhilai - Bhilai Steel Plant","06-03-2025 18:00:00",21.185571,81.343175,PM2.5,8,29,15
India,Chhattisgarh,Bhilai,"Civic Center, Bhilai - Bhilai Steel Plant","06-03-2025 18:00:00",21.185571,81.343175,NO2,6,8,7
India,Chhattisgarh,Bhilai,"Civic Center, Bhilai - Bhilai Steel Plant","06-03-2025 18:00:00",21.185571,81.343175,NH3,2,2,2
India,Bihar,Patna,"Rajbansi Nagar, Patna - BSPCB","06-03-2025 18:00:00",25.599486,85.113666,OZONE,17,72,42
India,Bihar,Patna,"Samanpura, Patna - BSPCB","06-03-2025 18:00:00",25.596727,85.085624,NO2,38,56,44
India,Bihar,Patna,"Samanpura, Patna - BSPCB","06-03-2025 18:00:00",25.596727,85.085624,NH3,6,7,6
India,Bihar,Purnia,"Mariam Nagar, Purnia - BSPCB","06-03-2025 18:00:00",25.366336,87.117468,PM2.5,8,130,73
India,Bihar,Purnia,"Mariam Nagar, Purnia - BSPCB","06-03-2025 18:00:00",25.366336,87.117468,NO2,12,17,14
India,Bihar,Rajgir,"Dangi Tola, Rajgir - BSPCB","06-03-2025 18:00:00",25.03280,85.41948,PM10,NA,NA,NA
India,Bihar,Saharsa,"Police Line, Saharsa - BSPCB","06-03-2025 18:00:00",25.892357,86.590325,PM10,45,120,85
India,Bihar,Saharsa,"Police Line, Saharsa - BSPCB","06-03-2025 18:00:00",25.892357,86.590325,SO2,15,17,16
India,Bihar,Hajipur,"Industrial Area, Hajipur - BSPCB","06-03-2025 18:00:00",25.697189,85.245900,CO,22,37,29
India,Bihar,Hajipur,"Industrial Area, Hajipur - BSPCB","06-03-2025 18:00:00",25.697189,85.245900,OZONE,42,112,97
India,Bihar,Katihar,"Mirchaibari, Katihar - BSPCB","06-03-2025 18:00:00",25.560083,87.553265,CO,8,44,27
India,Bihar,Kishanganj,"SDM Office_Khagra, Kishanganj - BSPCB","06-03-2025 18:00:00",26.0881305,87.93840336,NO2,24,31,26
India,Bihar,Manguraha,"Forest Rest House, Manguraha - BSPCB","06-03-2025 18:00:00",27.308328,84.531742,NO2,2,4,3
India,Bihar,Manguraha,"Forest Rest House, Manguraha - BSPCB","06-03-2025 18:00:00",27.308328,84.531742,NH3,NA,NA,NA
India,Bihar,Patna,"DRM Office Danapur, Patna - BSPCB","06-03-2025 18:00:00",25.586562,85.043586,CO,29,57,34
India,Bihar,Patna,"Govt. High School Shikarpur, Patna - BSPCB","06-03-2025 18:00:00",25.592539,85.227158,SO2,4,10,7
India,Bihar,Patna,"IGSC Planetarium Complex, Patna - BSPCB","06-03-2025 18:00:00",25.610369,85.132568,PM2.5,43,89,64
India,Bihar,Patna,"IGSC Planetarium Complex, Patna - BSPCB","06-03-2025 18:00:00",25.610369,85.132568,NO2,13,13,13
India,Bihar,Patna,"Rajbansi Nagar, Patna - BSPCB","06-03-2025 18:00:00",25.599486,85.113666,SO2,5,15,11
India,Chhattisgarh,Raipur,"Bhatagaon New ISBT, Raipur - CECB","06-03-2025 18:00:00",21.219665,81.630094,NH3,NA,NA,NA
India,Chhattisgarh,Raipur,"Krishak Nagar, Raipur - CECB","06-03-2025 18:00:00",21.237755,81.705301,PM2.5,19,51,32
India,Chhattisgarh,Raipur,"Siltara Phase-II, Raipur - CECB","06-03-2025 18:00:00",21.371751,81.664929,NO2,18,34,23
India,Chhattisgarh,Tumidih,"OP Jindal Industrial Park, Tumidih - CECB","06-03-2025 18:00:00",22.06631475,83.33820077,SO2,5,10,6
India,Chhattisgarh,Milupara,"Govt. Higher Secondary School, Milupara - CECB","06-03-2025 18:00:00",22.1910172,83.5197009,PM10,47,152,82
India,Chhattisgarh,Milupara,"Govt. Higher Secondary School, Milupara - CECB","06-03-2025 18:00:00",22.1910172,83.5197009,NO2,13,50,27
India,Chhattisgarh,Milupara,"Govt. Higher Secondary School, Milupara - CECB","06-03-2025 18:00:00",22.1910172,83.5197009,NH3,1,2,1
India,Chhattisgarh,Raipur,"Bhatagaon New ISBT, Raipur - CECB","06-03-2025 18:00:00",21.219665,81.630094,PM2.5,NA,NA,NA
India,Chhattisgarh,Raipur,"Bhatagaon New ISBT, Raipur - CECB","06-03-2025 18:00:00",21.219665,81.630094,NO2,NA,NA,NA
India,Bihar,Samastipur,"DM Office_Kasipur, Samastipur - BSPCB","06-03-2025 18:00:00",25.859655,85.77944,PM10,NA,NA,NA
India,Bihar,Siwan,"Chitragupta Nagar, Siwan - BSPCB","06-03-2025 18:00:00",26.2271665,84.3570427,PM2.5,12,32,18
India,Bihar,Siwan,"Chitragupta Nagar, Siwan - BSPCB","06-03-2025 18:00:00",26.2271665,84.3570427,PM10,14,38,21
India,Chandigarh,Chandigarh,"Sector 22, Chandigarh - CPCC","06-03-2025 18:00:00",30.735567,76.775714,NH3,8,12,9
India,Bihar,Munger,"Town Hall, Munger - BSPCB","06-03-2025 18:00:00",25.376776,86.471523,PM10,70,169,100
India,Bihar,Muzaffarpur,"MIT-Daudpur Kothi, Muzaffarpur - BSPCB","06-03-2025 18:00:00",26.1403345,85.3650192,PM2.5,NA,NA,NA
India,Bihar,Muzaffarpur,"Muzaffarpur Collectorate, Muzaffarpur - BSPCB","06-03-2025 18:00:00",26.1209,85.3647,NO2,4,17,9
India,Chhattisgarh,Bilaspur,"Mangala, Bilaspur - NTPC","06-03-2025 18:00:00",22.08815,82.13737,SO2,11,15,12
India,Chhattisgarh,Chhal,"Nawapara SECL Colony, Chhal - CECB","06-03-2025 18:00:00",22.118125,83.140608,NH3,2,3,3
India,Chhattisgarh,Korba,"Urja Nagar, Korba - CECB","06-03-2025 18:00:00",22.348441,82.549611,NO2,49,69,57
India,Delhi,Delhi,"Mundka, Delhi - DPCC","06-03-2025 18:00:00",28.684678,77.076574,NH3,5,7,6
India,Delhi,Delhi,"NSIT Dwarka, Delhi - CPCB","06-03-2025 18:00:00",28.60909,77.0325413,OZONE,21,41,37
India,Delhi,Delhi,"Najafgarh, Delhi - DPCC","06-03-2025 18:00:00",28.570173,76.933762,NH3,6,9,8
India,Delhi,Delhi,"Narela, Delhi - DPCC","06-03-2025 18:00:00",28.822836,77.101981,PM2.5,23,197,71
India,Delhi,Delhi,"Narela, Delhi - DPCC","06-03-2025 18:00:00",28.822836,77.101981,NH3,4,5,4
India,Delhi,Delhi,"Narela, Delhi - DPCC","06-03-2025 18:00:00",28.822836,77.101981,SO2,5,9,7
India,Delhi,Delhi,"Narela, Delhi - DPCC","06-03-2025 18:00:00",28.822836,77.101981,OZONE,14,44,36
India,Delhi,Delhi,"Nehru Nagar, Delhi - DPCC","06-03-2025 18:00:00",28.567890,77.250515,PM2.5,22,157,70
India,Delhi,Delhi,"IGI Airport (T3), Delhi - IMD","06-03-2025 18:00:00",28.5627763,77.1180053,PM10,37,112,84
India,Delhi,Delhi,"IHBAS, Dilshad Garden, Delhi - CPCB","06-03-2025 18:00:00",28.6811736,77.3025234,OZONE,13,56,40
India,Delhi,Delhi,"ITO, Delhi - CPCB","06-03-2025 18:00:00",28.628624,77.241060,NH3,2,6,4
India,Delhi,Delhi,"ITO, Delhi - CPCB","06-03-2025 18:00:00",28.628624,77.241060,OZONE,27,76,62
India,Delhi,Delhi,"Jahangirpuri, Delhi - DPCC","06-03-2025 18:00:00",28.732820,77.170633,PM2.5,38,203,85
India,Delhi,Delhi,"Aya Nagar, Delhi - IMD","06-03-2025 18:00:00",28.4706914,77.1099364,OZONE,122,145,140
India,Delhi,Delhi,"Burari Crossing, Delhi - IMD","06-03-2025 18:00:00",28.7256504,77.2011573,NO2,10,17,14
India,Delhi,Delhi,"Burari Crossing, Delhi - IMD","06-03-2025 18:00:00",28.7256504,77.2011573,OZONE,16,35,28
India,Delhi,Delhi,"CRRI Mathura Road, Delhi - IMD","06-03-2025 18:00:00",28.5512005,77.2735737,PM2.5,11,90,54
India,Delhi,Delhi,"Chandni Chowk, Delhi - IITM","06-03-2025 18:00:00",28.656756,77.227234,OZONE,4,37,30
India,Delhi,Delhi,"Lodhi Road, Delhi - IITM","06-03-2025 18:00:00",28.588333,77.221667,PM2.5,35,275,118
India,Delhi,Delhi,"Major Dhyan Chand National Stadium, Delhi - DPCC","06-03-2025 18:00:00",28.611281,77.237738,NO2,22,51,34
India,Delhi,Delhi,"Major Dhyan Chand National Stadium, Delhi - DPCC","06-03-2025 18:00:00",28.611281,77.237738,NH3,4,5,4
India,Delhi,Delhi,"Major Dhyan Chand National Stadium, Delhi - DPCC","06-03-2025 18:00:00",28.611281,77.237738,OZONE,53,127,103
India,Delhi,Delhi,"Mandir Marg, Delhi - DPCC","06-03-2025 18:00:00",28.636429,77.201067,PM2.5,10,217,80
India,Delhi,Delhi,"Pusa, Delhi - DPCC","06-03-2025 18:00:00",28.639652,77.146275,OZONE,8,40,30
India,Delhi,Delhi,"Pusa, Delhi - IMD","06-03-2025 18:00:00",28.636110,77.173332,PM2.5,17,94,56
India,Delhi,Delhi,"R K Puram, Delhi - DPCC","06-03-2025 18:00:00",28.563262,77.186937,PM2.5,22,120,64
India,Delhi,Delhi,"Rohini, Delhi - DPCC","06-03-2025 18:00:00",28.732528,77.119920,NO2,24,37,29
India,Delhi,Delhi,"Rohini, Delhi - DPCC","06-03-2025 18:00:00",28.732528,77.119920,NH3,5,9,6
India,Delhi,Delhi,"Alipur, Delhi - DPCC","06-03-2025 18:00:00",28.815329,77.153010,SO2,3,25,12
India,Delhi,Delhi,"Anand Vihar, Delhi - DPCC","06-03-2025 18:00:00",28.647622,77.3158090,PM2.5,7,290,88
India,Delhi,Delhi,"Anand Vihar, Delhi - DPCC","06-03-2025 18:00:00",28.647622,77.3158090,NH3,7,28,9
India,Delhi,Delhi,"Ashok Vihar, Delhi - DPCC","06-03-2025 18:00:00",28.695381,77.181665,NO2,28,51,35
India,Delhi,Delhi,"Ashok Vihar, Delhi - DPCC","06-03-2025 18:00:00",28.695381,77.181665,NH3,4,5,4
India,Delhi,Delhi,"Patparganj, Delhi - DPCC","06-03-2025 18:00:00",28.623763,77.287209,PM2.5,20,88,52
India,Delhi,Delhi,"Patparganj, Delhi - DPCC","06-03-2025 18:00:00",28.623763,77.287209,NO2,25,75,36
India,Delhi,Delhi,"Punjabi Bagh, Delhi - DPCC","06-03-2025 18:00:00",28.674045,77.131023,NH3,7,9,8
India,Delhi,Delhi,"Pusa, Delhi - DPCC","06-03-2025 18:00:00",28.639652,77.146275,PM10,89,165,123
India,Delhi,Delhi,"Jahangirpuri, Delhi - DPCC","06-03-2025 18:00:00",28.732820,77.170633,NO2,23,43,30
India,Delhi,Delhi,"Jahangirpuri, Delhi - DPCC","06-03-2025 18:00:00",28.732820,77.170633,NH3,10,12,11
India,Delhi,Delhi,"Jawaharlal Nehru Stadium, Delhi - DPCC","06-03-2025 18:00:00",28.580280,77.233829,OZONE,46,98,86
India,Delhi,Delhi,"DTU, Delhi - CPCB","06-03-2025 18:00:00",28.7500499,77.1112615,SO2,60,65,62
India,Delhi,Delhi,"DTU, Delhi - CPCB","06-03-2025 18:00:00",28.7500499,77.1112615,OZONE,26,34,30
India,Gujarat,Ahmedabad,"SVPI Airport Hansol, Ahmedabad - IITM","06-03-2025 18:00:00",23.076793,72.627874,NO2,6,76,34
India,Gujarat,Ahmedabad,"SVPI Airport Hansol, Ahmedabad - IITM","06-03-2025 18:00:00",23.076793,72.627874,SO2,1,17,6
India,Gujarat,Ahmedabad,"Sardar Vallabhbhai Patel Stadium, Ahmedabad - IITM","06-03-2025 18:00:00",23.043070,72.562968,SO2,16,51,26
India,Gujarat,Ahmedabad,"Sardar Vallabhbhai Patel Stadium, Ahmedabad - IITM","06-03-2025 18:00:00",23.043070,72.562968,CO,2,134,40
India,Gujarat,Ahmedabad,"Sardar Vallabhbhai Patel Stadium, Ahmedabad - IITM","06-03-2025 18:00:00",23.043070,72.562968,OZONE,1,42,36
India,Gujarat,Ankleshwar,"GIDC, Ankleshwar - GPCB","06-03-2025 18:00:00",21.613267,73.010555,PM2.5,42,261,87
India,Gujarat,Ankleshwar,"GIDC, Ankleshwar - GPCB","06-03-2025 18:00:00",21.613267,73.010555,SO2,39,41,40
India,Gujarat,Gandhinagar,"Sector-10, Gandhinagar - GPCB","06-03-2025 18:00:00",23.221714,72.654328,PM10,32,143,91
India,Gujarat,Vapi,"Phase-1 GIDC, Vapi - GPCB","06-03-2025 18:00:00",20.362421,72.918013,PM2.5,22,122,67
India,Gujarat,Vatva,"Phase-4 GIDC, Vatva - GPCB","06-03-2025 18:00:00",22.969611,72.643500,PM10,63,407,146
India,Gujarat,Vatva,"Phase-4 GIDC, Vatva - GPCB","06-03-2025 18:00:00",22.969611,72.643500,NO2,32,87,57
India,Haryana,"Charkhi Dadri","Mini Secretariat, Charkhi Dadri - HSPCB","06-03-2025 18:00:00",28.593883,76.270653,OZONE,12,18,16
India,Delhi,Delhi,"Sirifort, Delhi - CPCB","06-03-2025 18:00:00",28.5504249,77.2159377,OZONE,23,40,35
India,Delhi,Delhi,"Sonia Vihar, Delhi - DPCC","06-03-2025 18:00:00",28.710508,77.249485,PM10,51,115,80
India,Delhi,Delhi,"Sri Aurobindo Marg, Delhi - DPCC","06-03-2025 18:00:00",28.531346,77.190156,PM10,88,160,112
India,Delhi,Delhi,"Sri Aurobindo Marg, Delhi - DPCC","06-03-2025 18:00:00",28.531346,77.190156,NH3,4,5,5
India,Haryana,Faridabad,"New Industrial Town, Faridabad - HSPCB","06-03-2025 18:00:00",28.39072,77.30059,SO2,2,16,7
India,Haryana,Faridabad,"Sector 11, Faridabad - HSPCB","06-03-2025 18:00:00",28.376058,77.315741,PM2.5,43,57,48
India,Haryana,Faridabad,"Sector 11, Faridabad - HSPCB","06-03-2025 18:00:00",28.376058,77.315741,PM10,52,68,58
India,Haryana,Faridabad,"Sector 30, Faridabad - HSPCB","06-03-2025 18:00:00",28.4417,77.3217,CO,58,66,62
India,Gujarat,Ahmedabad,"Chandkheda, Ahmedabad - IITM","06-03-2025 18:00:00",23.107969,72.574648,PM10,60,188,127
India,Gujarat,Ahmedabad,"Chandkheda, Ahmedabad - IITM","06-03-2025 18:00:00",23.107969,72.574648,SO2,2,46,14
India,Gujarat,Ahmedabad,"Gyaspur, Ahmedabad - IITM","06-03-2025 18:00:00",22.977134,72.553024,NH3,2,19,6
India,Gujarat,Ahmedabad,"Raikhad, Ahmedabad - IITM","06-03-2025 18:00:00",23.020509,72.579261,OZONE,2,136,92
India,Haryana,Gurugram,"Sector-51, Gurugram - HSPCB","06-03-2025 18:00:00",28.4227,77.0667,NO2,10,11,10
India,Haryana,Panchgaon,"Amity University, Panchgaon - IITM","06-03-2025 18:00:00",28.3153,76.9143,PM10,13,125,47
India,Haryana,Panchgaon,"Amity University, Panchgaon - IITM","06-03-2025 18:00:00",28.3153,76.9143,SO2,1,25,8
India,Delhi,Delhi,"Sri Aurobindo Marg, Delhi - DPCC","06-03-2025 18:00:00",28.531346,77.190156,CO,24,47,38
India,Delhi,Delhi,"Vivek Vihar, Delhi - DPCC","06-03-2025 18:00:00",28.672342,77.315260,PM10,104,172,129
India,Delhi,Delhi,"Vivek Vihar, Delhi - DPCC","06-03-2025 18:00:00",28.672342,77.315260,CO,32,42,36
India,"Himachal Pradesh",Baddi,"HIMUDA Complex Phase-1, Baddi - HPPCB","06-03-2025 18:00:00",30.943887,76.801991,SO2,3,59,23
India,"Himachal Pradesh",Baddi,"HIMUDA Complex Phase-1, Baddi - HPPCB","06-03-2025 18:00:00",30.943887,76.801991,OZONE,28,131,96
India,Delhi,Delhi,"Sirifort, Delhi - CPCB","06-03-2025 18:00:00",28.5504249,77.2159377,PM10,73,169,124
India,Karnataka,Chikkaballapur,"Chikkaballapur Rural, Chikkaballapur - KSPCB","06-03-2025 18:00:00",13.428828,77.731418,OZONE,24,24,24
India,Karnataka,Davanagere,"Devaraj Urs Badavane, Davanagere - KSPCB","06-03-2025 18:00:00",14.475800,75.905200,PM2.5,63,258,112
India,Karnataka,Davanagere,"Devaraj Urs Badavane, Davanagere - KSPCB","06-03-2025 18:00:00",14.475800,75.905200,NO2,11,16,13
India,Karnataka,Davanagere,"Devaraj Urs Badavane, Davanagere - KSPCB","06-03-2025 18:00:00",14.475800,75.905200,SO2,5,9,7
India,Karnataka,Davanagere,"Devaraj Urs Badavane, Davanagere - KSPCB","06-03-2025 18:00:00",14.475800,75.905200,OZONE,19,20,19
India,Karnataka,Dharwad,"Kalabhavan, Dharwad - KSPCB","06-03-2025 18:00:00",15.459706,75.008381,SO2,4,12,6
India,Karnataka,Dharwad,"Kalabhavan, Dharwad - KSPCB","06-03-2025 18:00:00",15.459706,75.008381,CO,22,80,33
India,Karnataka,Hassan,"B.Katihalli, Hassan - KSPCB","06-03-2025 18:00:00",13.008556,76.125258,PM10,92,137,110
India,Karnataka,Hassan,"B.Katihalli, Hassan - KSPCB","06-03-2025 18:00:00",13.008556,76.125258,NO2,11,19,15
India,Karnataka,Hassan,"B.Katihalli, Hassan - KSPCB","06-03-2025 18:00:00",13.008556,76.125258,CO,2,4,2
India,Karnataka,Haveri,"Ashwini Nagar, Haveri - KSPCB","06-03-2025 18:00:00",14.791800,75.389600,SO2,NA,NA,NA
India,Karnataka,Ramanagara,"Vijay Nagar, Ramanagara - KSPCB","06-03-2025 18:00:00",12.733409,77.298051,SO2,10,22,15
India,Karnataka,Shivamogga,"Vinoba Nagara, Shivamogga - KSPCB","06-03-2025 18:00:00",13.940000,75.555917,PM10,41,68,50
India,Karnataka,Tumakuru,"Thimmalapura, Tumakuru - KSPCB","06-03-2025 18:00:00",13.377516,77.099072,NH3,2,2,2
India,Karnataka,Udupi,"Brahmagiri, Udupi - KSPCB","06-03-2025 18:00:00",13.34194444,74.74694444,NO2,28,32,31
India,Karnataka,Udupi,"Brahmagiri, Udupi - KSPCB","06-03-2025 18:00:00",13.34194444,74.74694444,SO2,6,9,8
India,Karnataka,Yadgir,"Collector Office, Yadgir - KSPCB","06-03-2025 18:00:00",16.7602,77.1428,CO,4,47,29
India,Kerala,Eloor,"Udyogamandal, Eloor - Kerala PCB","06-03-2025 18:00:00",10.073232,76.302765,PM2.5,53,129,77
India,Kerala,Eloor,"Udyogamandal, Eloor - Kerala PCB","06-03-2025 18:00:00",10.073232,76.302765,NH3,1,1,1
India,Kerala,Kannur,"Thavakkara, Kannur - Kerala PCB","06-03-2025 18:00:00",11.875000,75.373200,SO2,5,5,5
India,Kerala,Kollam,"Polayathode, Kollam - Kerala PCB","06-03-2025 18:00:00",8.8787,76.6073,NH3,1,1,1
India,Kerala,Kollam,"Polayathode, Kollam - Kerala PCB","06-03-2025 18:00:00",8.8787,76.6073,SO2,1,4,2
India,Kerala,Thiruvananthapuram,"Kariavattom, Thiruvananthapuram - Kerala PCB","06-03-2025 18:00:00",8.563700,76.886500,PM2.5,40,46,43
India,Karnataka,Koppal,"Diwator Nagar, Koppal - KSPCB","06-03-2025 18:00:00",15.347630,76.181767,PM2.5,35,64,44
India,Karnataka,Koppal,"Diwator Nagar, Koppal - KSPCB","06-03-2025 18:00:00",15.347630,76.181767,OZONE,22,73,59
India,Karnataka,Madikeri,"Stuart Hill, Madikeri - KSPCB","06-03-2025 18:00:00",12.415911,75.735050,CO,10,18,14
India,Karnataka,Mysuru,"Hebbal 1st Stage, Mysuru - KSPCB","06-03-2025 18:00:00",12.21041,76.37376,PM10,38,75,60
India,Karnataka,Ramanagara,"Vijay Nagar, Ramanagara - KSPCB","06-03-2025 18:00:00",12.733409,77.298051,NO2,3,8,5
India,Karnataka,Bengaluru,"Sanegurava Halli, Bengaluru - KSPCB","06-03-2025 18:00:00",12.990328,77.5431385,NO2,21,58,28
India,Karnataka,Bengaluru,"Sanegurava Halli, Bengaluru - KSPCB","06-03-2025 18:00:00",12.990328,77.5431385,CO,20,57,29
India,Karnataka,Bidar,"Naubad, Bidar - KSPCB","06-03-2025 18:00:00",17.930306,77.482194,CO,20,60,24
India,Karnataka,Chamarajanagar,"Urban, Chamarajanagar - KSPCB","06-03-2025 18:00:00",11.55358,76.55521,CO,22,120,25
India,Karnataka,Chikkaballapur,"Chikkaballapur Rural, Chikkaballapur - KSPCB","06-03-2025 18:00:00",13.428828,77.731418,PM10,75,152,108
India,Karnataka,Bengaluru,"Jigani, Bengaluru - KSPCB","06-03-2025 18:00:00",12.7816279,77.6299145,NH3,7,7,7
India,Karnataka,Bengaluru,"Kasturi Nagar, Bengaluru - KSPCB","06-03-2025 18:00:00",13.003872,77.664217,PM10,92,500,197
India,Karnataka,Bengaluru,"Peenya, Bengaluru - CPCB","06-03-2025 18:00:00",13.0270199,77.494094,NH3,NA,NA,NA
India,Karnataka,Bengaluru,"Peenya, Bengaluru - CPCB","06-03-2025 18:00:00",13.0270199,77.494094,OZONE,NA,NA,NA
India,Karnataka,Bengaluru,"RVCE-Mailasandra, Bengaluru - KSPCB","06-03-2025 18:00:00",12.921418,77.502466,PM2.5,56,58,56
India,Karnataka,Kalaburagi,"Mahatma Basaveswar Colony, Kalaburgi - KSPCB","06-03-2025 18:00:00",17.336318,76.847397,CO,32,48,34
